elr,mileage_raw,mileage_ch,mileage_decimal,type,name,easting,northing,latitude,longitude
AAV,30.0572,30m 26ch,30.0572,Authorised Access Point '-' Pedestrian,Windlesham TP Hut,491973.0,166437.0,51.38902,-0.67804
AAV,30.0572,30m 26ch,30.0572,Authorised Access Point '-' Pedestrian,SWINLEY FOREST <GOLF CLUB>,491970.0,166451.0,51.38914,-0.67808
AAV,31.1166,31m 53ch,31.1166,Authorised Access Point '-' Pedestrian,BAGSHOT GARDEN CENTER  DOWN,491563.0,164337.0,51.3702,-0.68447
AAV,32.0066,32m 03ch,32.0066,Authorised Access Point '-' Road'-'Rail Machines,Bagshot RRV Access,491429.0,163745.0,51.3649,-0.68655
AAV,32.0104,32m 05ch,32.0104,Authorised Access Point '-' Vehicle,Bagshot Station Car Park,491419.0,163709.0,51.36458,-0.6867
AAV,32.0189,32m 09ch,32.0189,Authorised Access Point '-' Pedestrian,BAGSHOT PLATFORM 1,491402.0,163633.0,51.3639,-0.68697
AAV,32.0506,32m 23ch,32.0506,Authorised Access Point '-' Pedestrian,Guildford Road Viaduct <Bagshot>,491334.0,163322.0,51.36111,-0.68802
AAV,33.0924,33m 42ch,33.0924,Authorised Access Point '-' Pedestrian,JOLLY FARMER <UP SIDE> BAGSHOT END,490015.0,162088.0,51.35023,-0.70728
AAV,33.0990,33m 45ch,33.099,Authorised Access Point '-' Pedestrian,JOLLY FARMER <UP SIDE> CAMBERLEY END,490009.0,162072.0,51.35009,-0.70737
AAV,33.1122,33m 51ch,33.1122,Authorised Access Point '-' Pedestrian,JOLLY FARMER <DN SIDE> TP HUT,489896.0,161982.0,51.3493,-0.70901
AAV,34.0198,34m 09ch,34.0198,Authorised Access Point '-' Pedestrian,Gibbett Lane bridge 13,489296.0,161480.0,51.34488,-0.71775
AAV,34.1459,34m 66ch,34.1459,Authorised Access Point '-' Pedestrian,Middleton Rd <Upper Park Road> Bridge 14,488377.0,160817.0,51.33906,-0.73111
AAV,35.0598,35m 27ch,35.0598,Authorised Access Point '-' Vehicle,Camberley Substation,487633.0,160460.0,51.33597,-0.74188
AAV,35.0598,35m 27ch,35.0598,Authorised Access Point '-' Pedestrian,Camberley Station Lxing,487633.0,160460.0,51.33597,-0.74188
AAV,35.0742,35m 34ch,35.0742,Authorised Access Point '-' Pedestrian,Camberley Station Platform 1,487515.0,160401.0,51.33545,-0.74358
AAV,36.0170,36m 08ch,36.017,Authorised Access Point '-' Pedestrian,York Road <A321> bridge 16,486778.0,159616.0,51.32851,-0.75435
AAV,36.0814,36m 37ch,36.0814,Authorised Access Point '-' Pedestrian,Watchmore Park Riverside Way,486449.0,159126.0,51.32415,-0.75919
AAV,37.0103,37m 05ch,37.0103,Authorised Access Point '-' Pedestrian,Blackwater valley Relief Rd,486770.0,158290.0,51.31659,-0.75479
AAV,37.0220,37m 10ch,37.022,Authorised Access Point '-' Pedestrian,FRIMLEY TP HUT,486850.0,158218.0,51.31593,-0.75366
AAV,38.0770,38m 35ch,38.077,Authorised Access Point '-' Road'-'Rail Machines,The Hatches RRAP,488369.0,156755.0,51.30254,-0.73223
AAV,38.1144,38m 52ch,38.1144,Authorised Access Point '-' Pedestrian,"Frimley, Rear of Thames Water Works",488466.0,156428.0,51.29959,-0.73092
AAV,38.1752,38m 80ch,38.1752,Authorised Access Point '-' Pedestrian,Mytchett Road <Miners><A321> Bridge 20,488840.0,156028.0,51.29593,-0.72566
AAV,39.1306,39m 59ch,39.1306,Authorised Access Point '-' Pedestrian,Guildford Road bridge 21,489248.0,154978.0,51.28643,-0.72007
AAV,40.0247,40m 11ch,40.0247,Authorised Access Point '-' Pedestrian,Mytchett bridge 22,489143.0,154350.0,51.2808,-0.72173
ABE1,0.0770,0m 35ch,0.077,Authorised Access Point '-' Road'-'Rail Machines,Thorns Lane,487952.0,338098.0,52.93275,-0.69132
ABE1,1.0440,1m 20ch,1.044,Authorised Access Point '-' Pedestrian,Great Gonerby Footpath Crossing,489051.0,339148.0,52.94201,-0.67468
ABE1,3.0880,3m 40ch,3.088,Authorised Access Point '-' Pedestrian,SAND LANE BR7,490807.0,342113.0,52.96836,-0.64772
ABW,0.0550,0m 25ch,0.055,Authorised Access Point '-' Pedestrian,Cooksholme,388857.0,250423.0,52.15157,-2.16288
ACR,56.0490,56m 22ch,56.049,Authorised Access Point '-' Pedestrian,Ashford'-'Carriage Sidings,601379.0,142006.0,51.14132,0.87917
ACR,56.1276,56m 58ch,56.1276,Authorised Access Point '-' Vehicle,Ashford'-'Carriage Sidings,602032.0,141857.0,51.13975,0.88841
ACR,56.1452,56m 66ch,56.1452,Authorised Access Point '-' Pedestrian,Ashford'-'Carriage Sidings,602149.0,141966.0,51.14069,0.89015
ACR,56.1595,56m 72ch,56.1595,Authorised Access Point '-' Pedestrian,Ashford/Wye'-'Osbourne Road Bridge 1859B,602208.0,142084.0,51.14173,0.89105
ACR,56.1606,56m 73ch,56.1606,Authorised Access Point '-' Pedestrian,Ashford'-'Carriage Sidings,602211.0,142094.0,51.14182,0.8911
ACR,57.0247,57m 11ch,57.0247,Authorised Access Point '-' Pedestrian,Ashford/Wye'-'Hythe Road Bridge 1860,602312.0,142446.0,51.14495,0.89274
ACR,58.0000,58m 00ch,58.0,Authorised Access Point '-' Road'-'Rail Machines,Batchelors RRV,602783.0,143736.0,51.15637,0.90019
ACR,58.0044,58m 02ch,58.0044,Authorised Access Point '-' Pedestrian,Ashford/Wye'-'Willesborough Rd Bridge 1864/1864A,602804.0,143770.0,51.15666,0.90051
ACR,58.0286,58m 13ch,58.0286,Authorised Access Point '-' Pedestrian,KENNINGTON TPH ASHFORD TP HUT,602908.0,143962.0,51.15835,0.90211
ACR,58.0814,58m 37ch,58.0814,Authorised Access Point '-' Pedestrian,CRADLE BRIDGE,603180.0,144364.0,51.16186,0.90622
ACR,58.0814,58m 37ch,58.0814,Authorised Access Point '-' Pedestrian,CRADLE BRIDGE,603180.0,144364.0,51.16186,0.90622
ACR,58.1166,58m 53ch,58.1166,Authorised Access Point '-' Pedestrian,BOLLEAUX,603352.0,144636.0,51.16425,0.90883
ACR,58.1166,58m 53ch,58.1166,Authorised Access Point '-' Pedestrian,BOLLEAUX,603352.0,144636.0,51.16425,0.90883
ACR,58.1364,58m 62ch,58.1364,Authorised Access Point '-' Pedestrian,EAST MOUNTAIN,604449.0,144790.0,51.16524,0.92459
ACR,58.1364,58m 62ch,58.1364,Authorised Access Point '-' Pedestrian,EAST MOUNTAIN,604449.0,144790.0,51.16524,0.92459
ACR,59.0088,59m 04ch,59.0088,Authorised Access Point '-' Pedestrian,GOLDEN BALL,603685.0,145163.0,51.16886,0.91388
ACR,59.0088,59m 04ch,59.0088,Authorised Access Point '-' Pedestrian,GOLDEN BALL,603685.0,145163.0,51.16886,0.91388
ACR,59.0440,59m 20ch,59.044,Authorised Access Point '-' Pedestrian,WILMINGTON FARM,603858.0,145435.0,51.17124,0.91651
ACR,59.0440,59m 20ch,59.044,Authorised Access Point '-' Pedestrian,WILMINGTON FARM,603858.0,145435.0,51.17124,0.91651
ACR,59.1034,59m 47ch,59.1034,Authorised Access Point '-' Pedestrian,SPRING GROVE,604148.0,145894.0,51.17526,0.92091
ACR,59.1034,59m 47ch,59.1034,Authorised Access Point '-' Pedestrian,SPRING GROVE,604148.0,145894.0,51.17526,0.92091
ACR,60.0132,60m 06ch,60.0132,Authorised Access Point '-' Pedestrian,HARVILLE FARM,604570.0,146560.0,51.18109,0.92732
ACR,60.0132,60m 06ch,60.0132,Authorised Access Point '-' Pedestrian,HARVILLE FARM,604570.0,146560.0,51.18109,0.92732
ACR,60.0616,60m 28ch,60.0616,Authorised Access Point '-' Pedestrian,WYE,604803.0,146936.0,51.18439,0.93087
ACR,60.0616,60m 28ch,60.0616,Authorised Access Point '-' Pedestrian,WYE,604803.0,146936.0,51.18439,0.93087
ACR,60.0775,60m 35ch,60.0775,Authorised Access Point '-' Pedestrian,Wye'-'Signal Box,604865.0,147069.0,51.18556,0.93183
ACR,60.0991,60m 45ch,60.0991,Authorised Access Point '-' Vehicle,Wye'-'Signalbox car park,604937.0,147252.0,51.18718,0.93296
ACR,60.1628,60m 74ch,60.1628,Authorised Access Point '-' Pedestrian,SPARROW BRIDGE,605152.0,147789.0,51.19192,0.93634
ACR,60.1628,60m 74ch,60.1628,Authorised Access Point '-' Pedestrian,SPARROW BRIDGE,605152.0,147789.0,51.19192,0.93634
ACR,61.0836,61m 38ch,61.0836,Authorised Access Point '-' Pedestrian,BILTING GRANGE,605485.0,148613.0,51.1992,0.94157
ACR,61.0836,61m 38ch,61.0836,Authorised Access Point '-' Pedestrian,BILTING GRANGE,605485.0,148613.0,51.1992,0.94157
ACR,61.1430,61m 65ch,61.143,Authorised Access Point '-' Pedestrian,BILTING,605701.0,149108.0,51.20357,0.94494
ACR,61.1430,61m 65ch,61.143,Authorised Access Point '-' Pedestrian,BILTING,605701.0,149108.0,51.20357,0.94494
ACR,61.1540,61m 70ch,61.154,Authorised Access Point '-' Pedestrian,BUCKWELL,605747.0,149197.0,51.20435,0.94565
ACR,61.1540,61m 70ch,61.154,Authorised Access Point '-' Pedestrian,BUCKWELL,605747.0,149197.0,51.20435,0.94565
ACR,62.1716,62m 78ch,62.1716,Authorised Access Point '-' Pedestrian,Wye'-'Godmersham Road  Bridge 1883,606775.0,150636.0,51.21691,0.96118
ACR,63.1238,63m 56ch,63.1238,Authorised Access Point '-' Pedestrian,Wye/Chilham'-'Pope Street Bridge 1886,607494.0,151561.0,51.22495,0.972
ACR,64.0726,64m 33ch,64.0726,Authorised Access Point '-' Pedestrian,Sandy Lane Bridge 1889,607520.0,152665.0,51.23486,0.97301
ACR,64.1301,64m 59ch,64.1301,Authorised Access Point '-' Pedestrian,Chilham TP Hut,607486.0,153184.0,51.23953,0.97282
ACR,64.1374,64m 62ch,64.1374,Authorised Access Point '-' Pedestrian,Wye/Chilham'-'Chilham CSR Mast,607503.0,153253.0,51.24014,0.9731
ACR,64.1661,64m 76ch,64.1661,Authorised Access Point '-' Pedestrian,Chilham Mill Level Crossing CE,607628.0,153504.0,51.24235,0.97504
ACR,64.1661,64m 76ch,64.1661,Authorised Access Point '-' Pedestrian,Chilham Mill Level Crossing LE,607628.0,153504.0,51.24235,0.97504
ACR,64.1672,64m 76ch,64.1672,Authorised Access Point '-' Pedestrian,CHILHAM MILL,607622.0,153496.0,51.24228,0.97495
ACR,64.1672,64m 76ch,64.1672,Authorised Access Point '-' Pedestrian,CHILHAM MILL,607622.0,153496.0,51.24228,0.97495
ACR,64.1683,64m 76ch,64.1683,Authorised Access Point '-' Pedestrian,Chilham Mill Level Crossing CE,607628.0,153504.0,51.24235,0.97504
ACR,64.1683,64m 76ch,64.1683,Authorised Access Point '-' Pedestrian,Chilham Mill Level Crossing LE,607628.0,153504.0,51.24235,0.97504
ACR,65.0870,65m 40ch,65.087,Authorised Access Point '-' Pedestrian,Chilham Road Level Crossing CE,608354.0,153998.0,51.24652,0.98571
ACR,65.0870,65m 40ch,65.087,Authorised Access Point '-' Pedestrian,Chilham Road Level Crossing LE,608342.0,154001.0,51.24656,0.98554
ACR,65.0880,65m 40ch,65.088,Authorised Access Point '-' Pedestrian,CHILHAM ROAD,608340.0,154001.0,51.24656,0.98551
ACR,65.0880,65m 40ch,65.088,Authorised Access Point '-' Pedestrian,CHILHAM ROAD,608340.0,154001.0,51.24656,0.98551
ACR,65.0890,65m 40ch,65.089,Authorised Access Point '-' Pedestrian,Chilham Road Level Crossing LE,608349.0,153996.0,51.24651,0.98564
ACR,66.0374,66m 17ch,66.0374,Authorised Access Point '-' Pedestrian,SHALMSFORD STREET,609326.0,154589.0,51.25148,0.99997
ACR,66.0374,66m 17ch,66.0374,Authorised Access Point '-' Pedestrian,SHALMSFORD STREET,609326.0,154589.0,51.25148,0.99997
ACR,66.0682,66m 31ch,66.0682,Authorised Access Point '-' Pedestrian,Chilham/Chartham'-'Shalmsford St Bridge 1898,609569.0,154733.0,51.25268,1.00353
ACR,66.1342,66m 61ch,66.1342,Authorised Access Point '-' Pedestrian,DEANERY,610113.0,154988.0,51.25477,1.01146
ACR,66.1342,66m 61ch,66.1342,Authorised Access Point '-' Pedestrian,DEANERY,610113.0,154988.0,51.25477,1.01146
ACR,66.1738,66m 79ch,66.1738,Authorised Access Point '-' Pedestrian,DIBLEYS,610448.0,155134.0,51.25596,1.01634
ACR,66.1738,66m 79ch,66.1738,Authorised Access Point '-' Pedestrian,DIBLEYS,610448.0,155134.0,51.25596,1.01634
ACR,67.0220,67m 10ch,67.022,Authorised Access Point '-' Pedestrian,CHARTHAM,610655.0,155211.0,51.25657,1.01935
ACR,67.0220,67m 10ch,67.022,Authorised Access Point '-' Pedestrian,CHARTHAM,610655.0,155211.0,51.25657,1.01935
ACR,67.1034,67m 47ch,67.1034,Authorised Access Point '-' Pedestrian,HORTON,611346.0,155481.0,51.25874,1.0294
ACR,67.1034,67m 47ch,67.1034,Authorised Access Point '-' Pedestrian,HORTON,611346.0,155481.0,51.25874,1.0294
ACR,67.1056,67m 48ch,67.1056,Authorised Access Point '-' Pedestrian,Horton,611362.0,155491.0,51.25883,1.02964
ACR,67.1518,67m 69ch,67.1518,Authorised Access Point '-' Pedestrian,DOG KENNEL,611691.0,155757.0,51.26109,1.0345
ACR,67.1518,67m 69ch,67.1518,Authorised Access Point '-' Pedestrian,DOG KENNEL,611691.0,155757.0,51.26109,1.0345
ACR,68.1342,68m 61ch,68.1342,Authorised Access Point '-' Pedestrian,TONFORD,612609.0,156865.0,51.2707,1.0483
ACR,68.1342,68m 61ch,68.1342,Authorised Access Point '-' Pedestrian,TONFORD,612609.0,156865.0,51.2707,1.0483
ACR,69.0660,69m 30ch,69.066,Authorised Access Point '-' Pedestrian,WHITEHALL,613486.0,157307.0,51.27434,1.06112
ACR,69.0660,69m 30ch,69.066,Authorised Access Point '-' Pedestrian,WHITEHALL,613486.0,157307.0,51.27434,1.06112
ACR,69.1005,69m 46ch,69.1005,Authorised Access Point '-' Pedestrian,Canterbury West'-'Whitehall Road '-' Bridge 259 / 1903,613755.0,157472.0,51.27572,1.06507
ACR,70.0330,70m 15ch,70.033,Authorised Access Point '-' Pedestrian,St Dunstans LS,614418.0,158201.0,51.28202,1.075
ACR,70.0330,70m 15ch,70.033,Authorised Access Point '-' Pedestrian,ST DUNSTANS,614418.0,158201.0,51.28202,1.075
ACR,70.0330,70m 15ch,70.033,Authorised Access Point '-' Pedestrian,ST DUNSTANS,614418.0,158201.0,51.28202,1.075
ACR,70.0352,70m 16ch,70.0352,Authorised Access Point '-' Pedestrian,St Dunstans CS,614429.0,155218.0,51.25523,1.07337
ACR,70.0528,70m 24ch,70.0528,Authorised Access Point '-' Pedestrian,Canterbury West ECRO,614522.0,158350.0,51.28332,1.07658
ACR,70.0620,70m 28ch,70.062,Authorised Access Point '-' Vehicle,Canterbury West'-'BBRML Yard,614570.0,158419.0,51.28392,1.07731
ACR,70.1188,70m 54ch,70.1188,Authorised Access Point '-' Pedestrian,Canterbury West'-'St Stephens crossing,614883.0,158833.0,51.28752,1.08204
ACR,70.1188,70m 54ch,70.1188,Authorised Access Point '-' Pedestrian,ST STEPHENS,614882.0,158833.0,51.28752,1.08202
ACR,70.1188,70m 54ch,70.1188,Authorised Access Point '-' Pedestrian,ST STEPHENS,614882.0,158833.0,51.28752,1.08202
ACR,70.1188,70m 54ch,70.1188,Authorised Access Point '-' Pedestrian,ST STEPHENS,614882.0,158833.0,51.28752,1.08202
ACR,70.1188,70m 54ch,70.1188,Authorised Access Point '-' Pedestrian,ST STEPHENS,614882.0,158833.0,51.28752,1.08202
ACR,70.1210,70m 55ch,70.121,Authorised Access Point '-' Pedestrian,Canterbury West'-'St Stephens Crossing,614897.0,158848.0,51.28765,1.08225
ACR,71.0132,71m 06ch,71.0132,Authorised Access Point '-' Pedestrian,PARK ALLEY,615368.0,159255.0,51.29113,1.08924
ACR,71.0132,71m 06ch,71.0132,Authorised Access Point '-' Pedestrian,PARK ALLEY,615368.0,159255.0,51.29113,1.08924
ACR,71.0616,71m 28ch,71.0616,Authorised Access Point '-' Pedestrian,FOLLY FARM,615706.0,159541.0,51.29357,1.09425
ACR,71.0616,71m 28ch,71.0616,Authorised Access Point '-' Pedestrian,FOLLY FARM,615706.0,159541.0,51.29357,1.09425
ACR,71.1298,71m 59ch,71.1298,Authorised Access Point '-' Pedestrian,SAND PIT,616215.0,159895.0,51.29655,1.10175
ACR,71.1298,71m 59ch,71.1298,Authorised Access Point '-' Pedestrian,SAND PIT,616215.0,159895.0,51.29655,1.10175
ACR,71.1675,71m 76ch,71.1675,Authorised Access Point '-' Pedestrian,Canterbury West'-'Broad Oak AHB,616541.0,160011.0,51.29747,1.10649
ACR,71.1694,71m 77ch,71.1694,Authorised Access Point '-' Pedestrian,BROAD OAK,616557.0,160015.0,51.2975,1.10673
ACR,71.1694,71m 77ch,71.1694,Authorised Access Point '-' Pedestrian,BROAD OAK,616557.0,160015.0,51.2975,1.10673
ACR,72.1056,72m 48ch,72.1056,Authorised Access Point '-' Pedestrian,MILNER COURT,617535.0,160324.0,51.2999,1.12092
ACR,72.1056,72m 48ch,72.1056,Authorised Access Point '-' Pedestrian,MILNER COURT,617535.0,160324.0,51.2999,1.12092
ACR,72.1254,72m 57ch,72.1254,Authorised Access Point '-' Pedestrian,STURRY,617707.0,160379.0,51.30033,1.12342
ACR,72.1254,72m 57ch,72.1254,Authorised Access Point '-' Pedestrian,STURRY,617707.0,160379.0,51.30033,1.12342
ACR,72.1255,72m 57ch,72.1255,Authorised Access Point '-' Pedestrian,Sturry Gate Box,617709.0,160379.0,51.30033,1.12345
ACR,72.1650,72m 75ch,72.165,Authorised Access Point '-' Pedestrian,STURRY FOOTPATH,618052.0,160489.0,51.30119,1.12843
ACR,72.1650,72m 75ch,72.165,Authorised Access Point '-' Pedestrian,STURRY FOOTPATH,618052.0,160489.0,51.30119,1.12843
ACR,74.0264,74m 12ch,74.0264,Authorised Access Point '-' Pedestrian,WESTBERE,619891.0,161135.0,51.30628,1.15517
ACR,74.0264,74m 12ch,74.0264,Authorised Access Point '-' Pedestrian,WESTBERE,619891.0,161135.0,51.30628,1.15517
ACR,74.1122,74m 51ch,74.1122,Authorised Access Point '-' Pedestrian,HOPLANDS,620584.0,161503.0,51.30931,1.16532
ACR,74.1122,74m 51ch,74.1122,Authorised Access Point '-' Pedestrian,HOPLANDS,620584.0,161503.0,51.30931,1.16532
ACR,76.0132,76m 06ch,76.0132,Authorised Access Point '-' Pedestrian,PORT FARM,622655.0,162520.0,51.31764,1.19563
ACR,76.0132,76m 06ch,76.0132,Authorised Access Point '-' Pedestrian,PORT FARM,622655.0,162520.0,51.31764,1.19563
ACR,76.0858,76m 39ch,76.0858,Authorised Access Point '-' Pedestrian,SHIPS MEADOW,623094.0,163017.0,51.32193,1.20223
ACR,76.0858,76m 39ch,76.0858,Authorised Access Point '-' Pedestrian,SHIPS MEADOW,623094.0,163017.0,51.32193,1.20223
ACR,76.1320,76m 60ch,76.132,Authorised Access Point '-' Pedestrian,Port Farm Crossing,622662.0,162524.0,51.31767,1.19573
ACR,76.1364,76m 62ch,76.1364,Authorised Access Point '-' Pedestrian,Grove Ferry AHB,623506.0,163216.0,51.32356,1.20826
ACR,76.1364,76m 62ch,76.1364,Authorised Access Point '-' Pedestrian,GROVE FERRY,623505.0,163215.0,51.32355,1.20824
ACR,76.1364,76m 62ch,76.1364,Authorised Access Point '-' Pedestrian,GROVE FERRY,623505.0,163215.0,51.32355,1.20824
ACR,77.0572,77m 26ch,77.0572,Authorised Access Point '-' Pedestrian,WALL END,624299.0,163567.0,51.32639,1.21984
ACR,77.0572,77m 26ch,77.0572,Authorised Access Point '-' Pedestrian,WALL END,624299.0,163567.0,51.32639,1.21984
ACR,77.1672,77m 76ch,77.1672,Authorised Access Point '-' Pedestrian,Cater,625123.0,164143.0,51.33124,1.23201
ACR,77.1672,77m 76ch,77.1672,Authorised Access Point '-' Pedestrian,Cater,625123.0,164143.0,51.33124,1.23201
ACR,78.0044,78m 02ch,78.0044,Authorised Access Point '-' Pedestrian,CUT END,625213.0,164223.0,51.33192,1.23335
ACR,78.0044,78m 02ch,78.0044,Authorised Access Point '-' Pedestrian,CUT END,625213.0,164223.0,51.33192,1.23335
ACR,78.0814,78m 37ch,78.0814,Authorised Access Point '-' Pedestrian,SARRE BRIDGE,625817.0,164577.0,51.33486,1.24223
ACR,78.0814,78m 37ch,78.0814,Authorised Access Point '-' Pedestrian,SARRE BRIDGE,625817.0,164577.0,51.33486,1.24223
ACR,79.0132,79m 06ch,79.0132,Authorised Access Point '-' Pedestrian,MILE DROVE,629791.0,164599.0,51.33347,1.2992
ACR,79.0132,79m 06ch,79.0132,Authorised Access Point '-' Pedestrian,MILE DROVE,629791.0,164599.0,51.33347,1.2992
ACR,79.0687,79m 31ch,79.0687,Authorised Access Point '-' Pedestrian,Monkton'-'Gore Street Bridge,627293.0,164524.0,51.3338,1.26336
ACR,79.0792,79m 36ch,79.0792,Authorised Access Point '-' Pedestrian,MONKTON COURT,627388.0,164509.0,51.33363,1.26471
ACR,79.0792,79m 36ch,79.0792,Authorised Access Point '-' Pedestrian,MONKTON COURT,627388.0,164509.0,51.33363,1.26471
ACR,79.1562,79m 71ch,79.1562,Authorised Access Point '-' Pedestrian,MONKTON PARSONAGE,628084.0,164402.0,51.33239,1.27461
ACR,79.1562,79m 71ch,79.1562,Authorised Access Point '-' Pedestrian,MONKTON PARSONAGE,628084.0,164402.0,51.33239,1.27461
ACR,80.0550,80m 25ch,80.055,Authorised Access Point '-' Pedestrian,STANNARDS,628761.0,164229.0,51.33056,1.28421
ACR,80.0550,80m 25ch,80.055,Authorised Access Point '-' Pedestrian,STANNARDS,628761.0,164229.0,51.33056,1.28421
ACR,80.0968,80m 44ch,80.0968,Authorised Access Point '-' Pedestrian,WALTERS HALL,629139.0,164242.0,51.33053,1.28963
ACR,80.0968,80m 44ch,80.0968,Authorised Access Point '-' Pedestrian,WALTERS HALL,629139.0,164242.0,51.33053,1.28963
ACR,80.1320,80m 60ch,80.132,Authorised Access Point '-' Pedestrian,SHERIFFS COURT,629456.0,164207.0,51.33008,1.29415
ACR,80.1320,80m 60ch,80.132,Authorised Access Point '-' Pedestrian,SHERIFFS COURT,629456.0,164207.0,51.33008,1.29415
ACR,81.0528,81m 24ch,81.0528,Authorised Access Point '-' Pedestrian,Hopes,630344.0,164632.0,51.33354,1.30715
ACR,81.0528,81m 24ch,81.0528,Authorised Access Point '-' Pedestrian,Hopes,630344.0,164632.0,51.33354,1.30715
ACR,81.1254,81m 57ch,81.1254,Authorised Access Point '-' Pedestrian,Minster Level Crossing LE,631008.0,164130.0,51.32876,1.31634
ACR,81.1265,81m 58ch,81.1265,Authorised Access Point '-' Vehicle,Minster'-'Station Rear,631018.0,164129.0,51.32875,1.31649
ACR,81.1266,81m 58ch,81.1266,Authorised Access Point '-' Pedestrian,Minster Level Crossing LE,631036.0,164124.0,51.3287,1.31674
ACR,81.1276,81m 58ch,81.1276,Authorised Access Point '-' Pedestrian,MINSTER,631027.0,164128.0,51.32874,1.31661
ACR,81.1276,81m 58ch,81.1276,Authorised Access Point '-' Pedestrian,MINSTER,631027.0,164128.0,51.32874,1.31661
ACR,81.1342,81m 61ch,81.1342,Authorised Access Point '-' Vehicle,Minster'-'Signalbox,631088.0,164126.0,51.3287,1.31749
ACR,81.1540,81m 70ch,81.154,Authorised Access Point '-' Pedestrian,Cheesmans Close,631354.0,164334.0,51.33045,1.32143
ACR,82.0000,82m 00ch,82.0,Authorised Access Point '-' Pedestrian,DURLOCK MAIN,613469.0,164107.0,51.33541,1.06494
ACR,82.0000,82m 00ch,82.0,Authorised Access Point '-' Pedestrian,DURLOCK MAIN,613469.0,164107.0,51.33541,1.06494
ACR,82.0770,82m 35ch,82.077,Authorised Access Point '-' Pedestrian,ROUGH,632173.0,164072.0,51.32777,1.333
ACR,82.0770,82m 35ch,82.077,Authorised Access Point '-' Pedestrian,ROUGH,632173.0,164072.0,51.32777,1.333
ACR,83.0220,83m 10ch,83.022,Authorised Access Point '-' Pedestrian,SEVENSCORE,633278.0,164033.0,51.32697,1.34881
ACR,83.0220,83m 10ch,83.022,Authorised Access Point '-' Pedestrian,SEVENSCORE,633278.0,164033.0,51.32697,1.34881
ACR,83.0228,83m 10ch,83.0228,Authorised Access Point '-' Pedestrian,Minster/Ramsgate'-'Sevenscore AHB,633286.0,164034.0,51.32697,1.34892
ACR,83.0955,83m 43ch,83.0955,Authorised Access Point '-' Pedestrian,Cliffsend TPH Ramsgate TP Hut,633920.0,164240.0,51.32856,1.35814
ACR,84.0086,84m 04ch,84.0086,Authorised Access Point '-' Pedestrian,Minster/Ramsgate'-'Cliffsend AHB,634619.0,164649.0,51.33195,1.36843
ACR,84.0088,84m 04ch,84.0088,Authorised Access Point '-' Pedestrian,CLIFFSEND,634630.0,164649.0,51.33194,1.36859
ACR,84.0088,84m 04ch,84.0088,Authorised Access Point '-' Pedestrian,CLIFFSEND,634630.0,164649.0,51.33194,1.36859
ACR,84.1127,84m 51ch,84.1127,Authorised Access Point '-' Pedestrian,Minster/Ramsgate'-'Bridge 1959B,635438.0,165129.0,51.33592,1.38048
ACR,85.0473,85m 22ch,85.0473,Authorised Access Point '-' Pedestrian,Ramsgate Substation,636374.0,165470.0,51.33859,1.39412
ACR,85.0740,85m 34ch,85.074,Authorised Access Point '-' Pedestrian,Minster/Ramsgate'-'Manston Road,636620.0,165533.0,51.33905,1.39769
ACW,0.0000,0m 00ch,0.0,Authorised Access Point '-' Pedestrian,Acton Lane Bridge <ACW>,520968.5,183270.0,51.53488,-0.2557
ACW,0.0050,0m 02ch,0.005,Authorised Access Point '-' Pedestrian,Action Lane <ACW>,521026.2,183236.9,51.53457,-0.25488
ACW,0.0318,0m 14ch,0.0318,Authorised Access Point '-' Pedestrian,Euro Terminal <ACW> & ACTON LANE FS,521155.3,183042.6,51.53279,-0.25308
ACW,0.0322,0m 15ch,0.0322,Authorised Access Point '-' Vehicle,EUROTERMINAL WILLESDEN NO7 JNC,521156.9,183038.9,51.53276,-0.25306
ACW,0.0687,0m 31ch,0.0687,Authorised Access Point '-' Pedestrian,ACTON CANAL WHARF SB,521166.8,182713.5,51.52983,-0.25303
AFL,0.0565,0m 26ch,0.0565,Authorised Access Point '-' Vehicle,AINTREE,336429.0,397576.0,53.47082,-2.95782
AFL,0.0600,0m 27ch,0.06,Authorised Access Point '-' Vehicle,AINTREE STATION,336429.0,397576.0,53.47082,-2.95782
AFR,112.0974,112m 44ch,112.0974,Authorised Access Point '-' Vehicle,"Blue Bridge, Filton Tip",361262.0,179803.0,51.51534,-2.55832
AFR,112.1556,112m 71ch,112.1556,Authorised Access Point '-' Vehicle,FILTON WEST RELAY ROOMS,360625.0,179896.0,51.51613,-2.56752
AFR,114.0330,114m 15ch,114.033,Authorised Access Point '-' Pedestrian,Charlton Tunnel North,358655.0,179782.0,51.51497,-2.59589
AFR,114.1441,114m 66ch,114.1441,Authorised Access Point '-' Pedestrian,Fishpool Overbridge,357669.0,179587.0,51.51314,-2.61008
AFR,115.0757,115m 34ch,115.0757,Authorised Access Point '-' Vehicle,Former Site of Henbury Station,356745.0,179746.0,51.5145,-2.62342
AFR,116.0198,116m 09ch,116.0198,Authorised Access Point '-' Pedestrian,Hallen Fuel Depot,355652.0,179447.0,51.51173,-2.63913
AFR,118.0484,118m 22ch,118.0484,Authorised Access Point '-' Pedestrian,ROCKINGHAM BRIDGE,352664.0,181043.0,51.52583,-2.6824
AFR,119.0110,119m 05ch,119.011,Authorised Access Point '-' Vehicle,Bristol Bulk Handling Centre,351910.0,180148.0,51.51772,-2.69315
AGW,0.0155,0m 07ch,0.0155,Authorised Access Point '-' Road'-'Rail Machines,POLICE CAR COMPOUND,540554.0,178045.0,51.48338,0.02445
AGW,0.0990,0m 45ch,0.099,Authorised Access Point '-' Pedestrian,ANGERSTEIN FOOTPATH,540333.0,178235.0,51.48515,0.02135
AHX,0.0052,0m 02ch,0.0052,Authorised Access Point '-' Pedestrian,ALLERTON JN. S/BOX.  OFF SOUTHMEAD ROAD,341006.0,384910.0,53.35751,-2.88649
AJB,0.0737,0m 34ch,0.0737,Authorised Access Point '-' Pedestrian,Fisherman's Lxing,506489.0,162983.0,51.35543,-0.47051
AJB,0.0765,0m 35ch,0.0765,Authorised Access Point '-' Pedestrian,"Fishermans LC'-'DwnSide,VirginiaWaterEnd'-'SEE WARNING",506489.0,162970.0,51.35531,-0.47051
AJB,0.0765,0m 35ch,0.0765,Authorised Access Point '-' Pedestrian,"Fishermans LC'-'UpSide, VirginiaWaterEnd'-'SEE WARNING",506489.0,162970.0,51.35531,-0.47051
AJB,0.0775,0m 35ch,0.0775,Authorised Access Point '-' Pedestrian,"Fishermans LC '-' Up side, Byfleet end '-' SEE WARNING",506489.0,162970.0,51.35531,-0.47051
AJM1,138.0124,138m 06ch,138.0124,Authorised Access Point '-' Vehicle,Newbridge Road off the A6,434827.0,351427.0,53.05866,-1.48029
AJM1,138.0200,138m 09ch,138.02,Authorised Access Point '-' Pedestrian,Ambergate Station,434894.0,351596.0,53.06017,-1.47927
AJM1,140.0130,140m 06ch,140.013,Authorised Access Point '-' Pedestrian,Whatstandwell Water Works,433411.0,354029.0,53.08214,-1.50115
AJM1,140.0291,140m 13ch,140.0291,Authorised Access Point '-' Pedestrian,Whatstandwell Station,433308.0,354135.0,53.0831,-1.50268
AJM1,140.0736,140m 33ch,140.0736,Authorised Access Point '-' Vehicle,The Family Tree Cafe,433158.0,354508.0,53.08646,-1.50488
AJM1,141.0330,141m 15ch,141.033,Authorised Access Point '-' Pedestrian,Holmesford Cottage,432418.0,355407.0,53.09459,-1.51584
AJM1,141.1687,141m 77ch,141.1687,Authorised Access Point '-' Pedestrian,High Peak Junction Car Park,431422.0,355997.0,53.09995,-1.53066
AJM1,143.0220,143m 10ch,143.022,Authorised Access Point '-' Pedestrian,Cromford Station,430257.0,357420.0,53.11281,-1.54792
AJM1,143.1260,143m 57ch,143.126,Authorised Access Point '-' Pedestrian,Matlock Bath north of Willersley Tnl,429811.0,358217.0,53.12,-1.55451
AJM1,143.1624,143m 74ch,143.1624,Authorised Access Point '-' Pedestrian,Matlock Bath Station,429739.0,358542.0,53.12293,-1.55556
AJM1,144.1144,144m 52ch,144.1144,Authorised Access Point '-' Pedestrian,UB28 Pic Tor Lane,429800.0,359667.0,53.13304,-1.55454
AJM1,145.0156,145m 07ch,145.0156,Authorised Access Point '-' Vehicle,CAWDOR WAY,429542.0,360302.0,53.13876,-1.55834
AJM1,145.0545,145m 25ch,145.0545,Authorised Access Point '-' Road'-'Rail Machines,Derwent Way,429197.0,360461.0,53.14021,-1.56348
ALC1,0.0132,0m 06ch,0.0132,Authorised Access Point '-' Pedestrian,ASTON HALL ROAD,408665.0,289841.0,52.50603,-1.87232
ALC1,0.0660,0m 30ch,0.066,Authorised Access Point '-' Pedestrian,Lichfield Road,408862.0,290246.0,52.50967,-1.86941
ALC1,0.1122,0m 51ch,0.1122,Authorised Access Point '-' Vehicle,Lichfield Road <Park Approach>,409223.0,290452.0,52.51151,-1.86409
ALC1,1.0503,1m 23ch,1.0503,Authorised Access Point '-' Pedestrian,Gravelly Hill Stn,410083.2,290828.7,52.51489,-1.8514
ALC1,2.0671,2m 30ch,2.0671,Authorised Access Point '-' Pedestrian,Erdington Stn,411008.3,292321.3,52.52829,-1.83771
ALC1,2.1385,2m 63ch,2.1385,Authorised Access Point '-' Vehicle,Chester Road Industrial Estate,411349.0,292880.0,52.5333,-1.83267
ALC1,2.1694,2m 77ch,2.1694,Authorised Access Point '-' Pedestrian,HILL HOOK LAND,411466.0,293138.0,52.53562,-1.83094
ALC1,4.0022,4m 01ch,4.0022,Authorised Access Point '-' Pedestrian,Wilkinson Close,411552.0,294823.0,52.55077,-1.82961
ALC1,4.1584,4m 72ch,4.1584,Authorised Access Point '-' Vehicle,Sutton Coldfield Station Car Park,411874.0,296203.0,52.56317,-1.82481
ALC1,4.1584,4m 72ch,4.1584,Authorised Access Point '-' Road'-'Rail Machines,Sutton Coldfield Station Access Point,411878.0,296279.0,52.56385,-1.82475
ALC1,4.1584,4m 72ch,4.1584,Authorised Access Point '-' Pedestrian,SUTTON COLDFIELD STATION CAR PARK,411878.0,296279.0,52.56385,-1.82475
ALC2,5.0880,5m 40ch,5.088,Authorised Access Point '-' Pedestrian,Boswell Road <Underbridge No. 6>,412439.0,296934.0,52.56973,-1.81645
ALC2,6.0440,6m 20ch,6.044,Authorised Access Point '-' Vehicle,"Station Drive, Four Oaks",411798.0,297896.0,52.57839,-1.82587
ALC2,6.1174,6m 53ch,6.1174,Authorised Access Point '-' Pedestrian,The Fordrough <Overbridge No. 11>,411608.0,298543.0,52.58421,-1.82866
ALC2,7.0639,7m 29ch,7.0639,Authorised Access Point '-' Pedestrian,Butlers Lane Stn,411018.9,299486.3,52.59271,-1.83732
ALC2,8.0155,8m 07ch,8.0155,Authorised Access Point '-' Vehicle,Shelley Drive,410659.0,300601.0,52.60274,-1.8426
ALC2,8.0362,8m 16ch,8.0362,Authorised Access Point '-' Pedestrian,Blake Street Stn,410611.7,300781.4,52.60436,-1.84329
ALC2,9.0000,9m 00ch,9.0,Authorised Access Point '-' Pedestrian,Footherlay Lane <Underbridge No. 20>,410895.0,302014.0,52.61544,-1.83907
ALC2,10.0836,10m 38ch,10.0836,Authorised Access Point '-' Vehicle,Admiral Parker Drive,410515.0,304310.0,52.63609,-1.84461
ALC2,10.1100,10m 50ch,10.11,Authorised Access Point '-' Pedestrian,Shenstone Station,410594.0,304538.0,52.63813,-1.84343
ALC2,11.1496,11m 68ch,11.1496,Authorised Access Point '-' Pedestrian,Watling Street <Underbridge No. 33>,411015.0,306449.0,52.65531,-1.83715
ALC2,12.0352,12m 16ch,12.0352,Authorised Access Point '-' Pedestrian,Birmingham Road <A5127> <Underbridge No. 35>,411315.0,306927.0,52.6596,-1.83269
ALC2,12.1162,12m 53ch,12.1162,Authorised Access Point '-' Pedestrian,Berry Hill Farm Bridge <Overbridge No. 37>,411520.0,307624.0,52.66586,-1.82964
ALC2,13.0463,13m 21ch,13.0463,Authorised Access Point '-' Pedestrian,Summerfield Bridge <Underbridge No. 40>,411576.0,308584.0,52.67449,-1.82878
AMB,11.1419,11m 64ch,11.1419,Authorised Access Point '-' Pedestrian,Severn Beach Station,354034.0,184774.0,51.5595,-2.66314
AMB,12.1111,12m 50ch,12.1111,Authorised Access Point '-' Pedestrian,SITA SIDINGS,353758.0,183476.0,51.5478,-2.66695
AMB,14.0774,14m 35ch,14.0774,Authorised Access Point '-' Vehicle,Esso Fuel Terminal,352247.0,180814.0,51.52374,-2.68838
AMB,15.0679,15m 31ch,15.0679,Authorised Access Point '-' Pedestrian,St. Andrews Road Station,351785.0,179590.0,51.51269,-2.69488
AMJ,0.0347,0m 16ch,0.0347,Authorised Access Point '-' Vehicle,RICHMOND STREET,392897.0,399379.0,53.49082,-2.10707
ANI1,0.0328,0m 15ch,0.0328,Authorised Access Point '-' Vehicle,DENBURN,393956.1,806094.0,57.14588,-2.09989
ANI1,0.0669,0m 30ch,0.0669,Authorised Access Point '-' Pedestrian,LOWER DENBURN,393804.3,806360.2,57.14827,-2.10241
ANI1,1.0057,1m 03ch,1.0057,Authorised Access Point '-' Vehicle,"LESLIE TERRACE, KITTYBREWSTER",393308.7,807266.8,57.15641,-2.11062
ANI1,1.0591,1m 27ch,1.0591,Authorised Access Point '-' Road'-'Rail Machines,KITTYBREWSTER RRAP,393220.5,807743.2,57.16069,-2.1121
ANI1,1.0593,1m 27ch,1.0593,Authorised Access Point '-' Road'-'Rail Machines,KITTYBREWSTER RRAP,393223.8,807743.0,57.16068,-2.11204
ANI1,2.0174,2m 08ch,2.0174,Authorised Access Point '-' Pedestrian,Hayton Road UB 293/018 East,392871.5,808852.8,57.17065,-2.1179
ANI1,2.0186,2m 08ch,2.0186,Authorised Access Point '-' Pedestrian,"HAYTON ROAD, HAYTON EAP4",392860.0,808855.0,57.17067,-2.11809
ANI1,2.0190,2m 09ch,2.019,Authorised Access Point '-' Pedestrian,ABERDEEN A SUBSTATION,392860.6,808862.2,57.17073,-2.11808
ANI1,2.1266,2m 58ch,2.1266,Authorised Access Point '-' Pedestrian,Great Northern Road UB 293/023 North,391934.8,809150.0,57.1733,-2.1334
ANI1,2.1270,2m 58ch,2.127,Authorised Access Point '-' Pedestrian,Great Northern Road UB 293/023 South,391930.1,809144.4,57.17325,-2.13348
ANI1,4.1097,4m 50ch,4.1097,Authorised Access Point '-' Pedestrian,"MILLHILL BRAE, BANKHEAD",389317.1,810404.4,57.18452,-2.17675
ANI1,5.0789,5m 36ch,5.0789,Authorised Access Point '-' Pedestrian,Stoneywood Road,388996.1,811665.9,57.19585,-2.18212
ANI1,6.0294,6m 13ch,6.0294,Authorised Access Point '-' Pedestrian,Dyce Station,388487.0,812703.0,57.20515,-2.19059
ANI1,6.0315,6m 14ch,6.0315,Authorised Access Point '-' Pedestrian,Dyce Station,388488.0,812726.0,57.20536,-2.19057
ANI1,6.0476,6m 22ch,6.0476,Authorised Access Point '-' Pedestrian,Dyce Station,388421.0,812863.0,57.20659,-2.19169
ANI1,6.0493,6m 22ch,6.0493,Authorised Access Point '-' Pedestrian,Dyce Station,388424.0,812875.0,57.20669,-2.19164
ANI1,7.0080,7m 04ch,7.008,Authorised Access Point '-' Pedestrian,UB 44 Pitmeddan Road UB293/044,387947.8,814006.7,57.21685,-2.19958
ANI1,8.0102,8m 05ch,8.0102,Authorised Access Point '-' Pedestrian,Pitmedden GSM'-'R,386705.6,814910.9,57.22494,-2.2202
ANI1,10.0917,10m 42ch,10.0917,Authorised Access Point '-' Pedestrian,OB51 Kinaldie,383048.7,815300.0,57.22831,-2.28079
ANI1,11.0598,11m 27ch,11.0598,Authorised Access Point '-' Pedestrian,Kirkton of Kinellar UWC,381767.0,815356.0,57.22877,-2.30203
ANI1,11.0604,11m 27ch,11.0604,Authorised Access Point '-' Pedestrian,Kirkton of Kinellar UWC,381769.1,815359.7,57.2288,-2.30199
ANI1,11.1458,11m 66ch,11.1458,Authorised Access Point '-' Pedestrian,The Rushlach Rd,381033.4,815105.5,57.22649,-2.31416
ANI1,11.1593,11m 72ch,11.1593,Authorised Access Point '-' Pedestrian,DALWEARIE FARM,380911.3,815112.8,57.22655,-2.31618
ANI1,12.1691,12m 77ch,12.1691,Authorised Access Point '-' Pedestrian,Boat of Kintore Level Crossing,379583.0,816127.0,57.2356,-2.33827
ANI1,12.1698,12m 77ch,12.1698,Authorised Access Point '-' Pedestrian,Boat of Kintore Level Crossing,379583.0,816127.0,57.2356,-2.33827
ANI1,12.1706,12m 78ch,12.1706,Authorised Access Point '-' Pedestrian,Boat of Kintore Level Crossing,379580.4,816135.1,57.23567,-2.33831
ANI1,12.1711,12m 78ch,12.1711,Authorised Access Point '-' Pedestrian,Boat of Kintore Level Crossing,379572.6,816133.5,57.23566,-2.33844
ANI1,13.1002,13m 46ch,13.1002,Authorised Access Point '-' Road'-'Rail Machines,KINTORE RRAP,378992.7,816886.7,57.2424,-2.34811
ANI1,13.1002,13m 46ch,13.1002,Authorised Access Point '-' Road'-'Rail Machines,KINTORE RRAP,378995.5,816887.9,57.24241,-2.34807
ANI1,13.1092,13m 50ch,13.1092,Authorised Access Point '-' Pedestrian,KINTORE STATION PLATFORM 1,378976.0,816968.0,57.24313,-2.3484
ANI1,13.1092,13m 50ch,13.1092,Authorised Access Point '-' Pedestrian,KINTORE STATION PLATFORM 2,378976.0,816968.0,57.24313,-2.3484
ANI1,13.1266,13m 58ch,13.1266,Authorised Access Point '-' Pedestrian,KINTORE STATION PLATFORM 2,378948.0,817125.0,57.24454,-2.34887
ANI1,13.1266,13m 58ch,13.1266,Authorised Access Point '-' Pedestrian,KINTORE STATION PLATFORM 1,378948.0,817125.0,57.24454,-2.34887
ANI1,15.1126,15m 51ch,15.1126,Authorised Access Point '-' Pedestrian,Port Elphinstone <Down>,378121.0,819915.0,57.26956,-2.36282
ANI1,15.1171,15m 53ch,15.1171,Authorised Access Point '-' Pedestrian,Port Elphinstone <Up>,378112.4,819955.8,57.26993,-2.36297
ANI1,16.0947,16m 43ch,16.0947,Authorised Access Point '-' Vehicle,Old Port Road,377762.0,821331.0,57.28227,-2.3689
ANI1,16.1455,16m 66ch,16.1455,Authorised Access Point '-' Pedestrian,Inverurie Station,377615.0,821763.0,57.28614,-2.37138
ANI1,16.1651,16m 75ch,16.1651,Authorised Access Point '-' Pedestrian,Inverurie Station,377543.0,821919.0,57.28754,-2.37259
ANI1,16.1651,16m 75ch,16.1651,Authorised Access Point '-' Pedestrian,Inverurie Station,377530.0,821918.0,57.28753,-2.37281
ANI1,16.1708,16m 78ch,16.1708,Authorised Access Point '-' Road'-'Rail Machines,INVERURIE YARD,377515.4,821966.0,57.28796,-2.37305
ANI1,16.1708,16m 78ch,16.1708,Authorised Access Point '-' Road'-'Rail Machines,INVERURIE YARD,377509.4,821962.7,57.28793,-2.37315
ANI1,18.1040,18m 47ch,18.104,Authorised Access Point '-' Pedestrian,North of Inverurie <Throigh Farm>,375364.9,823228.5,57.29919,-2.40886
ANI1,22.0890,22m 40ch,22.089,Authorised Access Point '-' Pedestrian,"UB 93 CRAIGMILL, OFF A96",370476.0,825451.0,57.31887,-2.49026
ANI1,25.1278,25m 58ch,25.1278,Authorised Access Point '-' Pedestrian,LAMINGTON FARM,365534.1,826233.3,57.32555,-2.57243
ANI1,25.1738,25m 79ch,25.1738,Authorised Access Point '-' Road'-'Rail Machines,TOLL OF DAIES O/B 104 / DAIES OYNE FORK,365133.3,826360.7,57.32666,-2.5791
ANI1,26.0907,26m 41ch,26.0907,Authorised Access Point '-' Pedestrian,OB 105 GREENINCHES FARM ROAD,364392.9,826775.1,57.33033,-2.59146
ANI1,27.0872,27m 40ch,27.0872,Authorised Access Point '-' Vehicle,INSCH STATION,363028.0,827567.0,57.33733,-2.61425
ANI1,30.0702,30m 32ch,30.0702,Authorised Access Point '-' Pedestrian,"OB 113 GLANDERSTONE, OFF B9002",358872.1,829133.6,57.35105,-2.68355
ANI1,31.1068,31m 49ch,31.1068,Authorised Access Point '-' Pedestrian,OB 116 WEETS OF WARDHOUSE,357072.3,829837.8,57.35721,-2.71358
ANI1,31.1537,31m 70ch,31.1537,Authorised Access Point '-' Pedestrian,OB 117 WARDHOUSE APPROACH,356669.4,829980.0,57.35845,-2.7203
ANI1,32.0638,32m 29ch,32.0638,Authorised Access Point '-' Pedestrian,"OB 118 LAIGHMUIR, OFF B9002",355958.5,829700.9,57.35587,-2.73207
ANI1,35.0262,35m 12ch,35.0262,Authorised Access Point '-' Pedestrian,"OB 128, B9002 INSCH '-' HUNTLY ROAD",352697.7,831358.9,57.37044,-2.78658
ANI1,43.0323,43m 15ch,43.0323,Authorised Access Point '-' Pedestrian,KINNOIR BRIDGE CLOSE BY O/B 150,354527.4,843110.0,57.47619,-2.75834
ANI1,48.0134,48m 06ch,48.0134,Authorised Access Point '-' Vehicle,"OB 171 CAIRNIE, U/C ROAD OFF A95",350504.9,849487.2,57.53305,-2.82671
ANI1,48.1349,48m 61ch,48.1349,Authorised Access Point '-' Vehicle,"OLD GRANGE JUNCTION, OFF A95",349962.2,850430.2,57.54146,-2.83597
ANI1,52.0376,52m 17ch,52.0376,Authorised Access Point '-' Pedestrian,Banff Bridge,344621.7,851726.8,57.55248,-2.92547
ANI2,0.0100,0m 05ch,0.01,Authorised Access Point '-' Pedestrian,Forres Station Platform 1 West Access,302986.9,859040.3,57.61114,-3.62394
ANI2,0.0100,0m 05ch,0.01,Authorised Access Point '-' Pedestrian,Forres Station Platform 2 West Access,302954.0,859017.0,57.61093,-3.62448
ANI2,0.0275,0m 12ch,0.0275,Authorised Access Point '-' Pedestrian,Forres Station Platform 2 Access,303135.5,859099.5,57.61171,-3.62148
ANI2,0.0275,0m 12ch,0.0275,Authorised Access Point '-' Pedestrian,Forres Station Platform 1 Access,302954.0,859017.0,57.61093,-3.62448
ANI2,0.0282,0m 13ch,0.0282,Authorised Access Point '-' Road'-'Rail Machines,Forres Station RRAP,303171.4,859111.9,57.61183,-3.62088
ANI2,0.0282,0m 13ch,0.0282,Authorised Access Point '-' Road'-'Rail Machines,FORRES STATION RRAP,303170.1,859115.1,57.61186,-3.6209
ANI2,0.0651,0m 30ch,0.0651,Authorised Access Point '-' Pedestrian,Mosset Park UWC,303449.2,859240.6,57.61304,-3.61628
ANI2,0.0966,0m 44ch,0.0966,Authorised Access Point '-' Vehicle,Forres East 677pts,303700.2,859382.8,57.61437,-3.61214
ANI2,0.0967,0m 44ch,0.0967,Authorised Access Point '-' Vehicle,"CHRISTIES  NURSERY LC, OFF A96",303697.6,859388.4,57.61442,-3.61219
ANI2,0.1604,0m 73ch,0.1604,Authorised Access Point '-' Vehicle,Bogton Nursery UWC,304176.8,859722.3,57.61752,-3.6043
ANI2,2.0670,2m 30ch,2.067,Authorised Access Point '-' Pedestrian,"OB 3, B9011 ROAD, GRANGE HALL",306157.8,861063.2,57.62998,-3.57167
ANI2,6.1709,6m 78ch,6.1709,Authorised Access Point '-' Vehicle,"OB 10 ALVES OLD STATION, OFF A96",313491.3,861780.1,57.63789,-3.44915
ANI2,7.1025,7m 47ch,7.1025,Authorised Access Point '-' Pedestrian,OB 11 EASTER CLOVES,314460.1,861927.7,57.6394,-3.43298
ANI2,9.0208,9m 09ch,9.0208,Authorised Access Point '-' Road'-'Rail Machines,"OB 12 MOSSTOWIE ROAD, OFF A96",316874.7,862192.2,57.64222,-3.39263
ANI2,11.0885,11m 40ch,11.0885,Authorised Access Point '-' Pedestrian,ELGIN,320672.0,862122.0,57.64228,-3.32901
ANI2,11.1309,11m 60ch,11.1309,Authorised Access Point '-' Pedestrian,ELGIN WEST POINTS,321064.4,862153.1,57.64263,-3.32245
ANI2,11.1440,11m 65ch,11.144,Authorised Access Point '-' Pedestrian,ELGIN WEST,321154.3,862233.4,57.64336,-3.32097
ANI2,11.1630,11m 74ch,11.163,Authorised Access Point '-' Pedestrian,Elgin Level Crossing '-' North,321368.0,862177.0,57.64289,-3.31737
ANI2,11.1647,11m 75ch,11.1647,Authorised Access Point '-' Pedestrian,Elgin Level Crossing '-' South,321369.4,862174.3,57.64287,-3.31735
ANI2,12.0432,12m 20ch,12.0432,Authorised Access Point '-' Pedestrian,Elgin Station Platform 2,321761.0,862189.0,57.64307,-3.3108
ANI2,12.0432,12m 20ch,12.0432,Authorised Access Point '-' Pedestrian,Elgin Station Platform 1 West,321761.0,862189.0,57.64307,-3.3108
ANI2,16.1710,16m 78ch,16.171,Authorised Access Point '-' Pedestrian,LOCH NA BO RD <SCRAPHARD BRIDGE> O/B 40,329064.0,860322.0,57.62751,-3.18793
ANI2,18.0894,18m 41ch,18.0894,Authorised Access Point '-' Pedestrian,ORBLISTON OLD STATION,330411.0,858248.0,57.60909,-3.16478
ANI2,18.0920,18m 42ch,18.092,Authorised Access Point '-' Vehicle,ORBLISTON STREET,330425.2,858228.6,57.60892,-3.16454
ANI2,19.0249,19m 11ch,19.0249,Authorised Access Point '-' Pedestrian,OB 44 ORBLISTON,330710.3,857282.3,57.60046,-3.15949
ANI2,20.1501,20m 68ch,20.1501,Authorised Access Point '-' Pedestrian,Orton,330930.1,854546.2,57.57592,-3.15504
ANI2,21.1709,21m 78ch,21.1709,Authorised Access Point '-' Pedestrian,"B9015 ROAD, ORTON",331153.9,852809.0,57.56035,-3.1508
ANI2,26.0771,26m 35ch,26.0771,Authorised Access Point '-' Pedestrian,"OB 64 TAUCHERS ROAD, OFF A95",337100.3,850060.5,57.53653,-3.05071
ANI3,120.0955,120m 43ch,120.0955,Authorised Access Point '-' Pedestrian,"DALVEY, U/C ROAD OFF A96",301171.0,858308.0,57.60418,-3.65402
ANI3,124.1006,124m 46ch,124.1006,Authorised Access Point '-' Pedestrian,INSHOCH WOOD,294904.0,857467.3,57.59521,-3.75849
ANI3,126.0800,126m 36ch,126.08,Authorised Access Point '-' Pedestrian,ALDEARN STATION CLOSE TO O/B 73,291921.5,856978.9,57.59012,-3.80815
ANI3,128.1660,128m 75ch,128.166,Authorised Access Point '-' Vehicle,"B9091 BALBLAIR ROAD <1>, NAIRN",288074.0,855955.0,57.57999,-3.872
ANI3,129.0082,129m 04ch,129.0082,Authorised Access Point '-' Vehicle,"B9091 BALBLAIR ROAD <2>, NAIRN",287932.5,855865.6,57.57915,-3.87433
ANI3,129.1348,129m 61ch,129.1348,Authorised Access Point '-' Pedestrian,LochDhu Crossing,286929.5,855288.3,57.57372,-3.89082
ANI3,131.0124,131m 06ch,131.0124,Authorised Access Point '-' Pedestrian,"KILDRUMMIE, U/C ROAD OFF B9091",285063.2,854330.0,57.56465,-3.92156
ANI3,132.1452,132m 66ch,132.1452,Authorised Access Point '-' Pedestrian,Easter Glackton No 2 Crossing,282353.0,833542.0,57.37731,-3.95684
ANI3,133.0372,133m 17ch,133.0372,Authorised Access Point '-' Road'-'Rail Machines,GOLLANFIELD FLYOVER,281837.0,853392.0,57.55539,-3.975
ANI3,133.1055,133m 48ch,133.1055,Authorised Access Point '-' Pedestrian,"OB 83 GOLLANFIELD HOUSE, OFF A96",281154.5,853224.1,57.55371,-3.98632
ANI3,136.0067,136m 03ch,136.0067,Authorised Access Point '-' Road'-'Rail Machines,INVERNESS AIRPORT COMPOUND,277654.0,851629.0,57.53845,-4.04398
ANI3,136.0130,136m 06ch,136.013,Authorised Access Point '-' Pedestrian,INVERNESS AIRPORT COMPOUND,277610.0,851593.0,57.53812,-4.0447
ANI3,136.0860,136m 39ch,136.086,Authorised Access Point '-' Pedestrian,INVERNESS AIRPORT STATION PLATFORM 2 EAST,277099.0,851159.0,57.53408,-4.05301
ANI3,136.0860,136m 39ch,136.086,Authorised Access Point '-' Pedestrian,INVERNESS AIRPORT STATION PLATFORM 1 EAST,277093.0,851165.0,57.53413,-4.05311
ANI3,136.1034,136m 47ch,136.1034,Authorised Access Point '-' Pedestrian,INVERNESS AIRPORT STATION PLATFORM 2 WEST,276975.0,851056.0,57.53312,-4.05503
ANI3,136.1034,136m 47ch,136.1034,Authorised Access Point '-' Pedestrian,INVERNESS AIRPORT STATION PLATFORM 1 WEST,276970.0,851064.0,57.53319,-4.05512
ANI3,136.1660,136m 75ch,136.166,Authorised Access Point '-' Pedestrian,DALCROSS <1>,276520.0,850710.0,57.52989,-4.06245
ANI3,136.1660,136m 75ch,136.166,Authorised Access Point '-' Pedestrian,DALCROSS <2>,276520.0,850710.0,57.52989,-4.06245
ANI3,136.1693,136m 77ch,136.1693,Authorised Access Point '-' Pedestrian,WOODEND,276495.0,850696.0,57.52976,-4.06286
ANI3,137.0363,137m 16ch,137.0363,Authorised Access Point '-' Pedestrian,DALCROSS STATION ROAD SOUTH,276185.0,850447.0,57.52744,-4.06791
ANI3,137.0373,137m 17ch,137.0373,Authorised Access Point '-' Pedestrian,DALCROSS STATION ROAD NORTH,276173.0,850449.0,57.52746,-4.06811
ANI3,137.1475,137m 67ch,137.1475,Authorised Access Point '-' Pedestrian,WEST FRASER ACCESS POINT,275375.0,849829.0,57.52167,-4.08111
ANI3,138.0708,138m 32ch,138.0708,Authorised Access Point '-' Pedestrian,"NEWTON, TRACK OFF B9039 ROAD",274649.3,849289.6,57.51663,-4.09294
ANI3,138.1330,138m 60ch,138.133,Authorised Access Point '-' Pedestrian,"B9039 FORT GEORGE ROAD, NEWTON",274186.0,848959.0,57.51353,-4.1005
ANI3,139.1748,139m 79ch,139.1748,Authorised Access Point '-' Vehicle,Lower Cullernie Crossing,272342.1,848216.6,57.50635,-4.13087
ANI3,141.0526,141m 24ch,141.0526,Authorised Access Point '-' Pedestrian,MILTON OF CULLODEN,270793.0,846831.0,57.49347,-4.15597
ANI3,141.0772,141m 35ch,141.0772,Authorised Access Point '-' Pedestrian,RAIGMORE,270623.7,846682.2,57.49209,-4.15872
ANL,3.1534,3m 70ch,3.1534,Authorised Access Point '-' Pedestrian,North Acton <Chase Road>,520750.8,182003.2,51.52354,-0.25927
ANL,4.0395,4m 18ch,4.0395,Authorised Access Point '-' Pedestrian,North Acton <Park Royal Road>,520207.5,182170.7,51.52516,-0.26704
ANL,4.1407,4m 64ch,4.1407,Authorised Access Point '-' Road'-'Rail Machines,Park Royal Guinness <Maple Leaf Bakery>,519318.7,182420.7,51.52759,-0.27976
ANL,5.0506,5m 23ch,5.0506,Authorised Access Point '-' Pedestrian,Hanger Lane Gyratory <EMERGENCY>,518549.8,182642.6,51.52975,-0.29077
ANL,5.1745,5m 79ch,5.1745,Authorised Access Point '-' Pedestrian,Alperton Lane Perivale,517459.1,182913.1,51.53241,-0.3064
ANL,7.0969,7m 44ch,7.0969,Authorised Access Point '-' Vehicle,Greenford Signalbox,515110.1,183815.2,51.541,-0.33996
ANL,7.1504,7m 68ch,7.1504,Authorised Access Point '-' Pedestrian,Greenford <Station Approach>,514661.4,183987.6,51.54264,-0.34637
ANL,8.0932,8m 42ch,8.0932,Authorised Access Point '-' Pedestrian,Carr Road,513644.7,184370.8,51.54629,-0.3609
ANL,9.0022,9m 01ch,9.0022,Authorised Access Point '-' Pedestrian,Eastcote Lane,512916.8,184643.2,51.54889,-0.37131
ANN,39.1300,39m 59ch,39.13,Authorised Access Point '-' Pedestrian,SOMERSET PARK ANN,234445.4,622824.4,55.47117,-4.61942
ANN,41.1299,41m 59ch,41.1299,Authorised Access Point '-' Road'-'Rail Machines,"UB 8, SAINT QUIVOX RD, AUCHINCRUIVE",237364.9,624124.0,55.48381,-4.57404
ANN,42.1672,42m 76ch,42.1672,Authorised Access Point '-' Pedestrian,OB 12 MOSSBLOWN <u/c road off B742>,239237.9,624633.6,55.48901,-4.54472
ANN,43.0177,43m 08ch,43.0177,Authorised Access Point '-' Pedestrian,"B742 ROAD, MOSSBLOWN",239476.7,624675.3,55.48946,-4.54097
ANN,43.0555,43m 25ch,43.0555,Authorised Access Point '-' Pedestrian,OB14,239804.5,624778.0,55.49049,-4.53585
ANN,43.0728,43m 33ch,43.0728,Authorised Access Point '-' Vehicle,"ANNBANK JN, MOSSBLOWN <off B742>",239958.7,624816.4,55.49088,-4.53343
ANN,46.0010,46m 00ch,46.001,Authorised Access Point '-' Vehicle,Adjacent to Tarbolton Old Station,244087.9,625052.9,55.49434,-4.46827
ANN,48.0411,48m 19ch,48.0411,Authorised Access Point '-' Vehicle,MIDDLETONHILL FARM ROAD,246814.5,627299.7,55.51538,-4.42639
ANN,49.1426,49m 65ch,49.1426,Authorised Access Point '-' Pedestrian,"UB 39, B743 AYR ROAD, MAUCHLINE",249127.5,626875.8,55.51229,-4.38956
APL,65.0066,65m 03ch,65.0066,Authorised Access Point '-' Pedestrian,ASHLEYS,597537.0,129086.0,51.02661,0.81725
APL,65.0352,65m 16ch,65.0352,Authorised Access Point '-' Pedestrian,BODYS NO.1,597687.0,128872.0,51.02464,0.81927
APL,65.0924,65m 42ch,65.0924,Authorised Access Point '-' Pedestrian,BODYS NO.2,597991.0,128446.0,51.02071,0.82337
APL,65.1056,65m 48ch,65.1056,Authorised Access Point '-' Pedestrian,BODYS NO.3,598062.0,128347.0,51.01979,0.82433
APL,65.1276,65m 58ch,65.1276,Authorised Access Point '-' Pedestrian,BODYS NO.4,598182.0,128181.0,51.01826,0.82594
APL,65.1628,65m 74ch,65.1628,Authorised Access Point '-' Pedestrian,SNARGATE,598383.0,127944.0,51.01606,0.82868
APL,66.0220,66m 10ch,66.022,Authorised Access Point '-' Pedestrian,WELSTEADS,598616.0,127713.0,51.01391,0.83187
APL,66.0660,66m 30ch,66.066,Authorised Access Point '-' Pedestrian,GROVE LANE,598897.0,127448.0,51.01143,0.83572
APL,66.1100,66m 50ch,66.11,Authorised Access Point '-' Pedestrian,BOWDELL,599170.0,127171.0,51.00885,0.83946
APL,66.1100,66m 50ch,66.11,Authorised Access Point '-' Pedestrian,BOWDELL,599170.0,127171.0,51.00885,0.83946
APL,66.1562,66m 71ch,66.1562,Authorised Access Point '-' Pedestrian,KING STREET,599415.0,126816.0,51.00557,0.84275
APL,67.0286,67m 13ch,67.0286,Authorised Access Point '-' Pedestrian,HOBBS,599670.0,126446.0,51.00216,0.84618
APL,67.0440,67m 20ch,67.044,Authorised Access Point '-' Pedestrian,BROOKLAND,599767.0,126342.0,51.00119,0.8475
APL,67.0990,67m 45ch,67.099,Authorised Access Point '-' Pedestrian,BOARMANS,600072.0,125934.0,50.99742,0.85162
APL,67.1298,67m 59ch,67.1298,Authorised Access Point '-' Pedestrian,TILLERY,600242.0,125705.0,50.99531,0.85391
APL,67.1562,67m 71ch,67.1562,Authorised Access Point '-' Pedestrian,FIELDERS,600378.0,125520.0,50.9936,0.85575
APL,68.0330,68m 15ch,68.033,Authorised Access Point '-' Pedestrian,MOUNTAIN,600673.0,125132.0,50.99001,0.85973
APL,68.0792,68m 36ch,68.0792,Authorised Access Point '-' Pedestrian,PAINES NO.2,600972.0,124838.0,50.98726,0.86382
APL,68.1012,68m 46ch,68.1012,Authorised Access Point '-' Pedestrian,PAINES NO.3,601126.0,124712.0,50.98608,0.86595
APL,68.1496,68m 68ch,68.1496,Authorised Access Point '-' Pedestrian,COLDHARBOUR,601473.0,124429.0,50.98342,0.87073
APL,69.0110,69m 05ch,69.011,Authorised Access Point '-' Pedestrian,HUGHES,601740.0,124211.0,50.98136,0.87441
APL,69.0792,69m 36ch,69.0792,Authorised Access Point '-' Pedestrian,PIPERS NO. 2,602231.0,123809.0,50.97758,0.88117
APL,69.1012,69m 46ch,69.1012,Authorised Access Point '-' Pedestrian,MIDLEY,602388.0,123680.0,50.97637,0.88333
APL,69.1232,69m 56ch,69.1232,Authorised Access Point '-' Pedestrian,GILLETTS NO.1,602540.0,123555.0,50.97519,0.88542
APL,70.0308,70m 14ch,70.0308,Authorised Access Point '-' Pedestrian,CHAPEL BANK,603131.0,123063.0,50.97056,0.89356
APL,70.0550,70m 25ch,70.055,Authorised Access Point '-' Pedestrian,GILLETTS NO.2,603302.0,122922.0,50.96924,0.89591
APL,70.0572,70m 26ch,70.0572,Authorised Access Point '-' Pedestrian,PAINE,603317.0,122910.0,50.96912,0.89612
APL,70.0858,70m 39ch,70.0858,Authorised Access Point '-' Pedestrian,SWAMP,603511.0,122750.0,50.96762,0.89879
APL,70.1122,70m 51ch,70.1122,Authorised Access Point '-' Pedestrian,GILLETTS NO.3,603698.0,122596.0,50.96617,0.90136
APL,70.1408,70m 64ch,70.1408,Authorised Access Point '-' Pedestrian,BASS,603901.0,122430.0,50.96461,0.90415
APL,71.0044,71m 02ch,71.0044,Authorised Access Point '-' Pedestrian,CALDECOT,604178.0,122200.0,50.96244,0.90797
APL,71.1122,71m 51ch,71.1122,Authorised Access Point '-' Pedestrian,LYDD TOWN,604939.0,121571.0,50.95652,0.91843
APL,72.0616,72m 28ch,72.0616,Authorised Access Point '-' Pedestrian,LYDD FOOTPATH,604583.0,121864.0,50.95928,0.91354
APL,72.0880,72m 40ch,72.088,Authorised Access Point '-' Pedestrian,BLACKLOCKS,606037.0,120702.0,50.94833,0.93356
APL,73.0286,73m 13ch,73.0286,Authorised Access Point '-' Pedestrian,FOLKESTONE WATER WORKS,606861.0,120054.0,50.94221,0.9449
ARG1,0.0336,0m 15ch,0.0336,Authorised Access Point '-' Pedestrian,RUTHERGLEN Victoria Street,261425.1,662039.5,55.83169,-4.21271
ARG1,0.0463,0m 21ch,0.0463,Authorised Access Point '-' Pedestrian,RUTHERGLEN STN Queen St via LC,261425.1,662039.5,55.83169,-4.21271
ARG1,0.0523,0m 24ch,0.0523,Authorised Access Point '-' Pedestrian,RUTHERGLEN TRAINING SCHOOL LC,261422.3,662096.3,55.8322,-4.21278
ARG2,1.0977,1m 44ch,1.0977,Authorised Access Point '-' Pedestrian,BRIDGETON STATION PLAT 2,260762.2,663973.9,55.84887,-4.22428
ARG2,1.0994,1m 45ch,1.0994,Authorised Access Point '-' Road'-'Rail Machines,BRIDGETON STATION,260746.6,663979.4,55.84891,-4.22453
ARG2,1.0996,1m 45ch,1.0996,Authorised Access Point '-' Pedestrian,BRIDGETON STATION PLAT 1,260744.9,663980.3,55.84892,-4.22456
ARG2,3.0907,3m 41ch,3.0907,Authorised Access Point '-' Pedestrian,ANDERSTON STATION,258000.9,665290.6,55.85988,-4.26904
ARG2,3.1738,3m 79ch,3.1738,Authorised Access Point '-' Road'-'Rail Machines,Exhibition Centre from Pointhouse Road,257265.8,665433.7,55.86095,-4.28085
ARG2,4.0138,4m 06ch,4.0138,Authorised Access Point '-' Pedestrian,EXHIBITION CENTRE STATION,257133.9,665515.7,55.86165,-4.283
ARG2,4.1107,4m 50ch,4.1107,Authorised Access Point '-' Vehicle,KELVINHAUGH TUNNEL <West portal>,256356.4,665880.8,55.8647,-4.29561
ARH,30.1674,30m 76ch,30.1674,Authorised Access Point '-' Road'-'Rail Machines,ARDROSSAN TOWN REAR,223194.0,642205.0,55.64118,-4.8096
ARH,31.0588,31m 27ch,31.0588,Authorised Access Point '-' Vehicle,ARDROSSAN HARBOUR STATION,222718.6,641951.3,55.63873,-4.81698
ATH,56.0352,56m 16ch,56.0352,Authorised Access Point '-' Pedestrian,Ashford,601282.0,142094.0,51.14215,0.87784
ATH,56.0437,56m 20ch,56.0437,Authorised Access Point '-' Pedestrian,Ashford,601342.0,142044.0,51.14168,0.87867
ATH,56.0551,56m 25ch,56.0551,Authorised Access Point '-' Pedestrian,Ashford'-'Back of Old Signalbox,601420.0,141976.0,51.14104,0.87974
ATH,56.0722,56m 33ch,56.0722,Authorised Access Point '-' Vehicle,Ashford,601484.0,141834.0,51.13974,0.88058
ATH,56.1694,56m 77ch,56.1694,Authorised Access Point '-' Pedestrian,ASHFORD UDC1,601552.0,140947.0,51.13175,0.88105
ATH,56.1694,56m 77ch,56.1694,Authorised Access Point '-' Pedestrian,ASHFORD UDC1,601552.0,140947.0,51.13175,0.88105
ATH,57.1276,57m 58ch,57.1276,Authorised Access Point '-' Pedestrian,EAST STOUR,601642.0,139724.0,51.12073,0.88165
ATH,57.1276,57m 58ch,57.1276,Authorised Access Point '-' Pedestrian,EAST STOUR,601642.0,139724.0,51.12073,0.88165
ATH,58.1012,58m 46ch,58.1012,Authorised Access Point '-' Pedestrian,Ashford/Brenzett Rd A2070 Bridge 1817,601690.0,138359.0,51.10846,0.88157
ATH,58.1694,58m 77ch,58.1694,Authorised Access Point '-' Pedestrian,STEEDS LANE,601572.0,137747.0,51.103,0.87955
ATH,58.1694,58m 77ch,58.1694,Authorised Access Point '-' Pedestrian,STEEDS LANE,601572.0,137747.0,51.103,0.87955
ATH,59.0770,59m 35ch,59.077,Authorised Access Point '-' Pedestrian,GOLDEN WOOD,601423.0,136996.0,51.09631,0.877
ATH,59.0770,59m 35ch,59.077,Authorised Access Point '-' Pedestrian,GOLDEN WOOD,601423.0,136996.0,51.09631,0.877
ATH,59.1540,59m 70ch,59.154,Authorised Access Point '-' Pedestrian,HARDINGE BRIDGE,601285.0,136304.0,51.09014,0.87465
ATH,59.1540,59m 70ch,59.154,Authorised Access Point '-' Pedestrian,HARDINGE BRIDGE,601285.0,136304.0,51.09014,0.87465
ATH,60.0726,60m 33ch,60.0726,Authorised Access Point '-' Pedestrian,Ashford/Ham Street,601063.0,135472.0,51.08275,0.87102
ATH,61.0770,61m 35ch,61.077,Authorised Access Point '-' Pedestrian,PACKING WOOD,600258.0,134033.0,51.0701,0.85874
ATH,61.0770,61m 35ch,61.077,Authorised Access Point '-' Pedestrian,PACKING WOOD,600258.0,134033.0,51.0701,0.85874
ATH,62.0616,62m 28ch,62.0616,Authorised Access Point '-' Pedestrian,MOORES,599506.0,132770.0,51.05902,0.84733
ATH,62.0616,62m 28ch,62.0616,Authorised Access Point '-' Pedestrian,MOORES,599506.0,132770.0,51.05902,0.84733
ATH,62.1320,62m 60ch,62.132,Authorised Access Point '-' Pedestrian,WAREHORNE,599073.0,132296.0,51.05491,0.84089
ATH,62.1320,62m 60ch,62.132,Authorised Access Point '-' Pedestrian,WAREHORNE,599073.0,132296.0,51.05491,0.84089
ATH,62.1716,62m 78ch,62.1716,Authorised Access Point '-' Pedestrian,GOODMANS,598815.0,132040.0,51.0527,0.83708
ATH,62.1716,62m 78ch,62.1716,Authorised Access Point '-' Pedestrian,GOODMANS,598815.0,132040.0,51.0527,0.83708
ATH,63.1452,63m 66ch,63.1452,Authorised Access Point '-' Pedestrian,KENARDINGTON,598133.0,130860.0,51.04234,0.82671
ATH,63.1452,63m 66ch,63.1452,Authorised Access Point '-' Pedestrian,KENARDINGTON,598133.0,130860.0,51.04234,0.82671
ATH,64.0990,64m 45ch,64.099,Authorised Access Point '-' Pedestrian,APPLEDORE,597597.0,129800.0,51.033,0.8185
ATH,64.0990,64m 45ch,64.099,Authorised Access Point '-' Pedestrian,APPLEDORE,597597.0,129800.0,51.033,0.8185
ATH,64.1027,64m 47ch,64.1027,Authorised Access Point '-' Pedestrian,Appledore,597583.0,129770.0,51.03274,0.81828
ATH,64.1540,64m 70ch,64.154,Authorised Access Point '-' Pedestrian,WILSON,597372.0,129349.0,51.02903,0.81505
ATH,65.0242,65m 11ch,65.0242,Authorised Access Point '-' Pedestrian,FLEET,597181.0,128972.0,51.02571,0.81212
ATH,65.0506,65m 23ch,65.0506,Authorised Access Point '-' Pedestrian,BODYS,597073.0,128757.0,51.02381,0.81046
ATH,65.0792,65m 36ch,65.0792,Authorised Access Point '-' Pedestrian,WATERHOUSE,596595.0,128523.0,51.02188,0.80353
ATH,65.1672,65m 76ch,65.1672,Authorised Access Point '-' Pedestrian,CATS TAIL,596592.0,127805.0,51.01543,0.8031
ATH,66.0440,66m 20ch,66.044,Authorised Access Point '-' Pedestrian,SWALLOW TAIL BRIDGE,596374.0,127374.0,51.01163,0.79976
ATH,66.1034,66m 47ch,66.1034,Authorised Access Point '-' Pedestrian,BECKETTS,596130.0,126889.0,51.00736,0.79602
ATH,67.0154,67m 07ch,67.0154,Authorised Access Point '-' Pedestrian,BECKETTS FOOTPATH,595768.0,126170.0,51.00102,0.79048
ATH,67.1342,67m 61ch,67.1342,Authorised Access Point '-' Pedestrian,WILLOW HOUSE,595284.0,125198.0,50.99246,0.78307
ATH,68.1694,68m 77ch,68.1694,Authorised Access Point '-' Pedestrian,BARTS,594530.0,123418.0,50.97672,0.77138
ATH,69.0638,69m 29ch,69.0638,Authorised Access Point '-' Pedestrian,DARTNALL,594248.0,122840.0,50.97163,0.76706
ATH,69.0726,69m 33ch,69.0726,Authorised Access Point '-' Pedestrian,BAKERS,594205.0,122772.0,50.97103,0.76641
ATH,69.0880,69m 40ch,69.088,Authorised Access Point '-' Pedestrian,STAR,594128.0,122654.0,50.96999,0.76526
ATH,69.1166,69m 53ch,69.1166,Authorised Access Point '-' Pedestrian,PLAYDEN,593988.0,122433.0,50.96806,0.76315
ATH,69.1716,69m 78ch,69.1716,Authorised Access Point '-' Pedestrian,PEAR TREE,593721.0,122008.0,50.96433,0.75912
ATH,70.0418,70m 19ch,70.0418,Authorised Access Point '-' Pedestrian,EAST GULDEFORD,593481.0,121660.0,50.96128,0.75552
ATH,70.0426,70m 19ch,70.0426,Authorised Access Point '-' Vehicle,Appledore/Rye,593477.0,121655.0,50.96124,0.75546
ATH,70.0858,70m 39ch,70.0858,Authorised Access Point '-' Pedestrian,COOKES,593201.0,121372.0,50.95879,0.75139
ATH,71.0110,71m 05ch,71.011,Authorised Access Point '-' Pedestrian,MIDDLE SALTS,592413.0,120891.0,50.95473,0.73992
ATH,71.0528,71m 24ch,71.0528,Authorised Access Point '-' Pedestrian,GROVE RD CROSSING RYE DN SIDE,592081.0,120703.0,50.95316,0.7351
ATH,71.0528,71m 24ch,71.0528,Authorised Access Point '-' Pedestrian,GROVE RD CROSSING RYE UP SIDE,592081.0,120703.0,50.95316,0.7351
ATH,71.0528,71m 24ch,71.0528,Authorised Access Point '-' Pedestrian,RYE '-' GROVE ROAD,592081.0,120703.0,50.95316,0.7351
ATH,71.0550,71m 25ch,71.055,Authorised Access Point '-' Pedestrian,RYE STATION CAR PARK,592064.0,120692.0,50.95306,0.73486
ATH,71.0968,71m 44ch,71.0968,Authorised Access Point '-' Pedestrian,Rye '-' Ferry Road,591779.0,120438.0,50.95088,0.73067
ATH,71.1166,71m 53ch,71.1166,Authorised Access Point '-' Pedestrian,Mill Bridge No.1,591658.0,120301.0,50.94968,0.72888
ATH,71.1188,71m 54ch,71.1188,Authorised Access Point '-' Pedestrian,Mill Bridge No.2,591658.0,120301.0,50.94968,0.72888
ATH,72.0968,72m 44ch,72.0968,Authorised Access Point '-' Pedestrian,Cadborough Farm,590712.0,119228.0,50.94036,0.71486
ATH,73.0374,73m 17ch,73.0374,Authorised Access Point '-' Pedestrian,Winchelsea,590008.0,118432.0,50.93344,0.70444
ATH,73.1606,73m 73ch,73.1606,Authorised Access Point '-' Pedestrian,Mair No. 2,589015.0,117951.0,50.92945,0.69007
ATH,74.0770,74m 35ch,74.077,Authorised Access Point '-' Pedestrian,Channel Bridge,588176.0,117825.0,50.92859,0.67808
ATH,74.0880,74m 40ch,74.088,Authorised Access Point '-' Pedestrian,Jurys No. 1,588080.0,117810.0,50.92849,0.67671
ATH,74.1144,74m 52ch,74.1144,Authorised Access Point '-' Pedestrian,Corke,587842.0,117774.0,50.92824,0.6733
ATH,75.0462,75m 21ch,75.0462,Authorised Access Point '-' Pedestrian,Merrick No.2,586866.0,117627.0,50.92724,0.65935
ATH,75.0968,75m 44ch,75.0968,Authorised Access Point '-' Pedestrian,Merrick No.3,586408.0,117558.0,50.92676,0.65281
ATH,75.1562,75m 71ch,75.1562,Authorised Access Point '-' Pedestrian,Snailham,585871.0,117477.0,50.92621,0.64513
ATH,76.1034,76m 47ch,76.1034,Authorised Access Point '-' Pedestrian,Coopers,584756.0,117309.0,50.92506,0.6292
ATH,77.0984,77m 45ch,77.0984,Authorised Access Point '-' Pedestrian,Doleham,583541.0,116454.0,50.91777,0.6115
ATH,77.1320,77m 60ch,77.132,Authorised Access Point '-' Pedestrian,Doleham,583489.0,116164.0,50.91518,0.61061
ATH,78.1402,78m 64ch,78.1402,Authorised Access Point '-' Pedestrian,Three Oaks,583825.0,114559.0,50.90065,0.61458
ATH,79.0792,79m 36ch,79.0792,Authorised Access Point '-' Pedestrian,ROCK LANE,583909.0,113497.0,50.89108,0.61524
ATH,79.0802,79m 36ch,79.0802,Authorised Access Point '-' Pedestrian,Three Oaks/Ore,583932.0,113548.0,50.89153,0.61559
ATH,81.0858,81m 39ch,81.0858,Authorised Access Point '-' Road'-'Rail Machines,Ore Siding RRV,582529.0,110719.0,50.86656,0.59425
ATH,81.0946,81m 43ch,81.0946,Authorised Access Point '-' Pedestrian,ORE SUBSTATION,582457.0,110681.0,50.86624,0.59321
ATH,81.1506,81m 68ch,81.1506,Authorised Access Point '-' Pedestrian,Ore/Hastings,582073.0,110349.0,50.86338,0.58759
ATH,82.0439,82m 20ch,82.0439,Authorised Access Point '-' Road'-'Rail Machines,Hastings Down Sidings,581666.0,109848.0,50.85901,0.58156
ATL,3.1230,3m 56ch,3.123,Authorised Access Point '-' Vehicle,LINWOOD CLOSE,533806.0,176200.0,51.46844,-0.07338
ATL,5.1232,5m 56ch,5.1232,Authorised Access Point '-' Pedestrian,Shepherds Lane Jnc '-' Bythorn St,530681.0,175538.0,51.46322,-0.11859
AWL,0.0346,0m 16ch,0.0346,Authorised Access Point '-' Pedestrian,Western Avenue,520678.5,181383.1,51.51798,-0.26052
AWP,0.0005,0m 00ch,0.0005,Authorised Access Point '-' Pedestrian,Anlaby Road Relay Room HU3 2RP,507790.0,428740.0,53.74366,-0.3654
AWP,0.0100,0m 05ch,0.01,Authorised Access Point '-' Road'-'Rail Machines,Cricket Ground rear of KC Stadium HU3 2RS,507844.0,428786.0,53.74406,-0.36456
AYH2,38.1739,38m 79ch,38.1739,Authorised Access Point '-' Pedestrian,BELLROCK,234212.3,623882.2,55.48058,-4.62373
AYH2,39.0023,39m 01ch,39.0023,Authorised Access Point '-' Pedestrian,BELLROCK,234185.7,623844.1,55.48023,-4.62413
AYR1,0.1606,0m 73ch,0.1606,Authorised Access Point '-' Vehicle,SHIELDS JUNCTION,257156.1,663958.1,55.84767,-4.28182
AYR1,1.0829,1m 38ch,1.0829,Authorised Access Point '-' Vehicle,Gower Street,256263.8,664069.8,55.84841,-4.29612
AYR1,2.0169,2m 08ch,2.0169,Authorised Access Point '-' Vehicle,SHIELDS,255272.1,664299.7,55.85018,-4.31207
AYR1,2.0294,2m 13ch,2.0294,Authorised Access Point '-' Vehicle,KINNING PARK TSC 25KV SUBSTATION,255158.1,664314.0,55.85027,-4.3139
AYR1,2.0294,2m 13ch,2.0294,Authorised Access Point '-' Road'-'Rail Machines,IBROX COMPOUND,255159.4,664318.7,55.85031,-4.31388
AYR1,2.1365,2m 62ch,2.1365,Authorised Access Point '-' Vehicle,"HOWDENS, CRIAGTON IND ESTATE",254199.8,664509.8,55.85174,-4.3293
AYR1,3.0150,3m 07ch,3.015,Authorised Access Point '-' Vehicle,CARDONALD STATION PLAT 2 <1>,253722.0,664623.0,55.85261,-4.33699
AYR1,3.0282,3m 13ch,3.0282,Authorised Access Point '-' Vehicle,CARDONALD STATION PLAT 2 <2>,253603.0,664648.0,55.8528,-4.3389
AYR1,3.0301,3m 14ch,3.0301,Authorised Access Point '-' Pedestrian,CARDONALD STATION PLAT 2 <3>,253586.0,664652.0,55.85283,-4.33918
AYR1,3.0350,3m 16ch,3.035,Authorised Access Point '-' Pedestrian,CARDONALD STATION PLAT 1,253542.9,664670.1,55.85298,-4.33987
AYR1,3.0350,3m 16ch,3.035,Authorised Access Point '-' Pedestrian,CARDONALD STATION PLAT 2 <4>,253539.2,664652.0,55.85282,-4.33992
AYR1,3.0653,3m 30ch,3.0653,Authorised Access Point '-' Pedestrian,"LADYKIRK DRIVE, HILLINGTON",253272.7,664710.7,55.85326,-4.34421
AYR1,3.1268,3m 58ch,3.1268,Authorised Access Point '-' Pedestrian,HILLINGTON E STN <CARNEGIE ROAD>,252730.3,664842.3,55.85428,-4.35294
AYR1,4.0526,4m 24ch,4.0526,Authorised Access Point '-' Pedestrian,HILLINGTON WEST STN <LINBURN RD>,251810.0,665024.4,55.85563,-4.36773
AYR1,4.1121,4m 51ch,4.1121,Authorised Access Point '-' Vehicle,Hillington<PCI PROJECT USE ONLY>,251276.8,665141.9,55.85652,-4.3763
AYR1,5.0829,5m 38ch,5.0829,Authorised Access Point '-' Pedestrian,"SOUTH EAST ACCESS STEPS, ARKLESTON  RD",249930.4,664996.0,55.8548,-4.39771
AYR1,5.0863,5m 39ch,5.0863,Authorised Access Point '-' Pedestrian,SOUTH WEST ACCESS STEPS ARKLESTON RD,249900.4,664986.7,55.8547,-4.39819
AYR2,6.1622,6m 74ch,6.1622,Authorised Access Point '-' Vehicle,"LANE AT UB 25, MOSS ST, PAISLEY",248214.4,664231.4,55.84739,-4.42467
AYR3,7.0305,7m 14ch,7.0305,Authorised Access Point '-' Pedestrian,Blenheim Court Paisley,247800.4,664251.1,55.84744,-4.43129
AYR3,7.0687,7m 31ch,7.0687,Authorised Access Point '-' Pedestrian,"BROWN STREET, PAISLEY",247449.4,664248.4,55.84731,-4.43689
AYR3,8.1308,8m 59ch,8.1308,Authorised Access Point '-' Pedestrian,UB 10 BARNSCOURT ROAD,245450.0,663438.0,55.83939,-4.46834
AYR3,8.1474,8m 67ch,8.1474,Authorised Access Point '-' Pedestrian,OFF MAIN ROAD ELDERSLIE,245300.0,663407.7,55.83907,-4.47071
AYR3,8.1592,8m 72ch,8.1592,Authorised Access Point '-' Road'-'Rail Machines,MALCOMS YARD,245189.2,663409.1,55.83905,-4.47248
AYR3,9.0845,9m 38ch,9.0845,Authorised Access Point '-' Pedestrian,"UB15A OLD ROAD, ELDERSLIE",244268.9,663255.3,55.83737,-4.48707
AYR3,9.1218,9m 55ch,9.1218,Authorised Access Point '-' Pedestrian,"OB 16 OLD RD, ELDERSLIE",243928.8,663199.7,55.83676,-4.49247
AYR3,10.0122,10m 06ch,10.0122,Authorised Access Point '-' Pedestrian,JOHNSTONE STN <SPRINGFIELD PARK>,243375.7,662967.4,55.8345,-4.50116
AYR3,10.0437,10m 20ch,10.0437,Authorised Access Point '-' Vehicle,"UP VIA CAR PARK, JOHNSTONE STN",243090.3,662874.3,55.83357,-4.50566
AYR3,10.0438,10m 20ch,10.0438,Authorised Access Point '-' Vehicle,"DOWN VIA CAR PARK, JOHNSTONE STN",243091.3,662870.5,55.83354,-4.50564
AYR3,10.1524,10m 69ch,10.1524,Authorised Access Point '-' Vehicle,"SHANKS CRESCENT, MILLIKEN PARK",242138.5,662581.4,55.83063,-4.52067
AYR3,11.0731,11m 33ch,11.0731,Authorised Access Point '-' Vehicle,"BUS DEPOT, COCHRANEMILL RD, M.PK",241448.0,662050.0,55.82563,-4.53137
AYR3,11.1406,11m 64ch,11.1406,Authorised Access Point '-' Vehicle,"CORSEFORD AVE, MILLIKEN PARK",240943.2,661649.5,55.82187,-4.53919
AYR3,13.0056,13m 03ch,13.0056,Authorised Access Point '-' Road'-'Rail Machines,HOWWOOD RRV,239449.5,660404.3,55.8102,-4.56227
AYR3,15.1268,15m 58ch,15.1268,Authorised Access Point '-' Road'-'Rail Machines,LOCHWINNOCH UP RRV,235992.0,657852.8,55.78614,-4.61585
AYR3,15.1269,15m 58ch,15.1269,Authorised Access Point '-' Road'-'Rail Machines,LOCHWINNOCH DN RRV,235994.4,657850.6,55.78612,-4.61581
AYR3,15.1435,15m 65ch,15.1435,Authorised Access Point '-' Vehicle,LOCHWINNOCH TSC 25KV SUBSTATION,235895.6,657733.9,55.78504,-4.61732
AYR3,17.1312,17m 60ch,17.1312,Authorised Access Point '-' Road'-'Rail Machines,OLD BEITH NORTH STN YARD AT OB41 DN,233979.1,655296.4,55.7625,-4.64636
AYR3,17.1313,17m 60ch,17.1313,Authorised Access Point '-' Road'-'Rail Machines,OLD BEITH NORTH STN YARD AT OB41 UP,233975.8,655297.5,55.76251,-4.64641
AYR3,19.1220,19m 55ch,19.122,Authorised Access Point '-' Vehicle,"FORMER UP YARD, GLENGARNOCK",232248.2,652848.5,55.73993,-4.67241
AYR3,19.1310,19m 60ch,19.131,Authorised Access Point '-' Vehicle,GLENGARNOCK STATION PLAT 2 <1>,232198.0,652780.0,55.7393,-4.67317
AYR3,19.1361,19m 62ch,19.1361,Authorised Access Point '-' Pedestrian,GLENGARNOCK STATION PLAT 1,232157.2,652741.0,55.73894,-4.6738
AYR3,21.0955,21m 43ch,21.0955,Authorised Access Point '-' Pedestrian,BROWNHILL,230369.1,650578.4,55.7189,-4.70091
AYR3,22.0773,22m 35ch,22.0773,Authorised Access Point '-' Vehicle,DALRY STATION PLAT 1 <1>,229769.1,649267.1,55.70692,-4.70963
AYR3,22.1035,22m 47ch,22.1035,Authorised Access Point '-' Vehicle,VIA CAR PARK DALRY STATION,229707.5,649033.2,55.7048,-4.71046
AYR4,24.1105,24m 50ch,24.1105,Authorised Access Point '-' Vehicle,"DARGARVEN MILL, DALRY <OFF A737>",229754.5,645806.9,55.67586,-4.70771
AYR4,25.0541,25m 25ch,25.0541,Authorised Access Point '-' Pedestrian,OB 8 ON A737 DALRY ROAD,229686.8,644723.7,55.66611,-4.70812
AYR4,26.1456,26m 66ch,26.1456,Authorised Access Point '-' Vehicle,BYREHILL JN <VIA LONGFORD AVE>,230009.7,642343.1,55.64485,-4.70152
AYR4,26.1456,26m 66ch,26.1456,Authorised Access Point '-' Road'-'Rail Machines,BYREHILL JN <VIA LONGFORD AVE>,230006.6,642342.0,55.64484,-4.70157
AYR4,28.0441,28m 20ch,28.0441,Authorised Access Point '-' Vehicle,OLD BOGSIDE STATION,231021.7,640288.3,55.62676,-4.68419
AYR4,29.1010,29m 46ch,29.101,Authorised Access Point '-' Road'-'Rail Machines,RIVERWAY UP,231670.6,638277.6,55.60894,-4.67267
AYR4,29.1010,29m 46ch,29.101,Authorised Access Point '-' Road'-'Rail Machines,RIVERWAY DN,231674.2,638278.2,55.60894,-4.67261
AYR4,29.1096,29m 50ch,29.1096,Authorised Access Point '-' Pedestrian,IRVINE DEPOT,231683.0,638196.9,55.60822,-4.67242
AYR4,30.0990,30m 45ch,30.099,Authorised Access Point '-' Pedestrian,"MARINE DRIVE, GAILES",231974.6,636701.0,55.59489,-4.66689
AYR4,30.1702,30m 77ch,30.1702,Authorised Access Point '-' Pedestrian,"GAILES ROAD, GAILES",232121.5,636065.5,55.58924,-4.66417
AYR4,31.0623,31m 28ch,31.0623,Authorised Access Point '-' Vehicle,OLD GAILES YARD <VIA GAILES ROAD>,232304.5,635477.5,55.58402,-4.66091
AYR4,32.0735,32m 33ch,32.0735,Authorised Access Point '-' Pedestrian,VIA BARASSIE GOLF CLUB,232752.4,633814.9,55.56925,-4.65281
AYR5,0.0545,0m 25ch,0.0545,Authorised Access Point '-' Pedestrian,BARASSIE TSC 25KV SUBSTATION,232784.1,632252.4,55.55523,-4.65136
AYR5,0.0840,0m 38ch,0.084,Authorised Access Point '-' Pedestrian,42/5 '-' ROWAN PLACE,232680.7,632004.1,55.55297,-4.65285
AYR5,0.1255,0m 57ch,0.1255,Authorised Access Point '-' Pedestrian,Location 43/1 '-' Brown Avenue,232552.3,631644.2,55.54969,-4.65466
AYR5,0.1649,0m 75ch,0.1649,Authorised Access Point '-' Pedestrian,Dundonald Road UB2,232474.5,631293.9,55.54652,-4.65568
AYR5,1.0886,1m 40ch,1.0886,Authorised Access Point '-' Pedestrian,"DARLEY PLACE/CRESCENT, TROON",232850.0,630511.6,55.53963,-4.64926
AYR5,1.1685,1m 77ch,1.1685,Authorised Access Point '-' Pedestrian,Location 45/1 '-' Fullerton Drive,233342.1,629975.4,55.53498,-4.64115
AYR5,2.0243,2m 11ch,2.0243,Authorised Access Point '-' Road'-'Rail Machines,CRAIGEND RD UP,233544.7,629728.3,55.53284,-4.63779
AYR5,2.0245,2m 11ch,2.0245,Authorised Access Point '-' Road'-'Rail Machines,CRAIGEND RD DN,233549.0,629728.0,55.53283,-4.63773
AYR6,35.0710,35m 32ch,35.071,Authorised Access Point '-' Vehicle,"B749 SOUTHWOOD ROAD, TROON",233851.1,629171.9,55.52795,-4.63261
AYR6,36.0629,36m 29ch,36.0629,Authorised Access Point '-' Road'-'Rail Machines,MONKTON,234750.6,627921.0,55.51702,-4.61763
AYR6,38.0333,38m 15ch,38.0333,Authorised Access Point '-' Pedestrian,"DOUGLAS AVENUE, PRESTWICK",234640.5,625024.0,55.49098,-4.61764
AYR6,38.1490,38m 68ch,38.149,Authorised Access Point '-' Road'-'Rail Machines,BELLROCK,234279.1,624056.3,55.48217,-4.62278
AYR6,39.0045,39m 02ch,39.0045,Authorised Access Point '-' Vehicle,OSWALD ROAD,234227.5,623772.5,55.4796,-4.62343
AYR6,39.0372,39m 17ch,39.0372,Authorised Access Point '-' Pedestrian,FALKLAND YARD <WALKWAY>,234113.3,623491.0,55.47704,-4.62506
AYR6,39.0983,39m 45ch,39.0983,Authorised Access Point '-' Pedestrian,NEWTON'-'ON'-'AYR TAMS,234196.4,622968.5,55.47237,-4.62344
AYR6,39.1470,39m 67ch,39.147,Authorised Access Point '-' Road'-'Rail Machines,SOMERSET PARK,234362.4,622544.4,55.46862,-4.62056
AYR6,40.0318,40m 14ch,40.0318,Authorised Access Point '-' Pedestrian,DAVIDSON PLACE,234359.4,622001.5,55.46375,-4.62029
AYR6,40.0898,40m 41ch,40.0898,Authorised Access Point '-' Vehicle,AYR PLT 1 N,234115.0,621510.6,55.45926,-4.62386
AYR6,40.0900,40m 41ch,40.09,Authorised Access Point '-' Road'-'Rail Machines,CARPARK SMITH ST,234126.7,621518.7,55.45934,-4.62368
AYS,1.1175,1m 53ch,1.1175,Authorised Access Point '-' Road'-'Rail Machines,ASHBURYS SIDINGS ACCESS,387369.0,397231.0,53.47141,-2.19031
BAC2,149.1364,149m 62ch,149.1364,Authorised Access Point '-' Vehicle,CAVENDISH PLACE,441666.0,375261.0,53.27242,-1.37514
BAC2,150.1232,150m 56ch,150.1232,Authorised Access Point '-' Vehicle,HALL LANE JN,443109.0,375279.0,53.27247,-1.3535
BAC2,151.0462,151m 21ch,151.0462,Authorised Access Point '-' Vehicle,BELLHOUSE LANE STAVELY,443899.0,375102.0,53.27081,-1.34167
BAC2,152.0066,152m 03ch,152.0066,Authorised Access Point '-' Vehicle,SEYMOUR JUNCTION,444193.0,373989.0,53.26078,-1.33742
BAC2,152.0396,152m 18ch,152.0396,Authorised Access Point '-' Pedestrian,SEYMOUR COLLIERY FP,444434.0,373812.0,53.25917,-1.33383
BAC2,152.0462,152m 21ch,152.0462,Authorised Access Point '-' Vehicle,SEYMOUR JCN,444483.0,373778.0,53.25886,-1.3331
BAC3,153.0308,153m 14ch,153.0308,Authorised Access Point '-' Pedestrian,ROMELEY,446878.0,375176.0,53.27122,-1.29699
BAC3,153.1298,153m 59ch,153.1298,Authorised Access Point '-' Vehicle,WOODTHORPE,446070.0,374734.0,53.26732,-1.30917
BAE1,51.0000,51m 00ch,51.0,Authorised Access Point '-' Road'-'Rail Machines,Basingstoke Battledown Flyover,458932.0,150736.0,51.25223,-1.15547
BAE1,51.1052,51m 48ch,51.1052,Authorised Access Point '-' Pedestrian,St Johns Road downside of footbridge 144,457970.0,150761.0,51.25255,-1.16926
BAE1,52.1213,52m 55ch,52.1213,Authorised Access Point '-' Pedestrian,Oakley,456228.0,151046.0,51.25529,-1.19417
BAE1,53.1138,53m 52ch,53.1138,Authorised Access Point '-' Pedestrian,Deane <Bridge 151>,454759.0,150830.0,51.25349,-1.21526
BAE1,54.0440,54m 20ch,54.044,Authorised Access Point '-' Pedestrian,Oakley Industrial Estate Bridge 152,453755.0,150880.0,51.25404,-1.22963
BAE1,55.0242,55m 11ch,55.0242,Authorised Access Point '-' Pedestrian,"Overton, Hannington Road",452337.0,151005.0,51.25529,-1.24994
BAE1,56.0152,56m 07ch,56.0152,Authorised Access Point '-' Pedestrian,Court Drove Bridge 157,450886.0,150498.0,51.25087,-1.2708
BAE1,56.1226,56m 56ch,56.1226,Authorised Access Point '-' Pedestrian,Norrington off Southington Lane Bridge 158,449979.0,150123.0,51.24757,-1.28385
BAE1,57.1262,57m 57ch,57.1262,Authorised Access Point '-' Pedestrian,Taskers Bridge 162,448491.0,149402.0,51.24122,-1.30527
BAE1,59.0053,59m 02ch,59.0053,Authorised Access Point '-' Road'-'Rail Machines,Whitchurch Station Car Park London End,446431.0,148913.0,51.23699,-1.33484
BAE1,59.1165,59m 53ch,59.1165,Authorised Access Point '-' Pedestrian,"Whitchurch, Blowswood Lane Bridge 170",445419.0,149030.0,51.23813,-1.34932
BAE1,60.0867,60m 39ch,60.0867,Authorised Access Point '-' Pedestrian,Hurstbourne Bridge 172 up dirt track,444083.0,149198.0,51.23974,-1.36844
BAE1,61.0661,61m 30ch,61.0661,Authorised Access Point '-' Vehicle,Bourne River Bridge 174,442718.0,148841.0,51.23664,-1.38804
BAE1,61.1579,61m 72ch,61.1579,Authorised Access Point '-' Pedestrian,Apsley Bridge 176,441941.0,148512.0,51.23374,-1.39921
BAE1,62.0353,62m 16ch,62.0353,Authorised Access Point '-' Pedestrian,Three Arch Bridge 177,441469.0,148333.0,51.23216,-1.40599
BAE1,62.1231,62m 56ch,62.1231,Authorised Access Point '-' Pedestrian,Wyke Bridge 178,440739.0,148004.0,51.22925,-1.41648
BAE1,63.1342,63m 61ch,63.1342,Authorised Access Point '-' Pedestrian,Andover <Walworth Rd>,439117.0,147318.0,51.2232,-1.43979
BAE1,64.0553,64m 25ch,64.0553,Authorised Access Point '-' Pedestrian,Andover access via Finkley Down farm bridge 179,438338.0,146990.0,51.2203,-1.45098
BAE1,64.1213,64m 55ch,64.1213,Authorised Access Point '-' Pedestrian,Finkley,437743.0,146905.0,51.21958,-1.45951
BAE1,65.0066,65m 03ch,65.0066,Authorised Access Point '-' Pedestrian,Walworth Road,437144.0,146863.0,51.21924,-1.46809
BAE1,65.1188,65m 54ch,65.1188,Authorised Access Point '-' Pedestrian,"Andover, Off Artist Way Bridge 185C",436251.0,146458.0,51.21565,-1.48092
BAE1,66.0440,66m 20ch,66.044,Authorised Access Point '-' Pedestrian,Andover PWAY compound,435499.0,145916.0,51.21083,-1.49174
BAE1,66.0528,66m 24ch,66.0528,Authorised Access Point '-' Pedestrian,Andover Multi'-'Storey Station Car Park,435480.0,145909.0,51.21077,-1.49201
BAE1,66.0550,66m 25ch,66.055,Authorised Access Point '-' Pedestrian,ANDOVER YARD GF,435395.0,145903.0,51.21072,-1.49323
BAE1,66.0638,66m 29ch,66.0638,Authorised Access Point '-' Pedestrian,Andover Station Car Park,435402.0,145855.0,51.21029,-1.49314
BAE1,66.1254,66m 57ch,66.1254,Authorised Access Point '-' Pedestrian,Andover Weyhill Rd B3402 <Bridge 188B>,434881.0,145546.0,51.20754,-1.50062
BAE1,67.0344,67m 16ch,67.0344,Authorised Access Point '-' Pedestrian,ANDOVER A303 <BRIDGE 188A>,434093.0,145291.0,51.20529,-1.51193
BAE1,68.0020,68m 01ch,68.002,Authorised Access Point '-' Pedestrian,Little Park <Red Post Lane> Bridge 189,432856.0,144960.0,51.20239,-1.52967
BAE1,68.1516,68m 69ch,68.1516,Authorised Access Point '-' Pedestrian,Abbotts Ann Bridge 191,431765.0,144133.0,51.19501,-1.54536
BAE1,69.1469,69m 67ch,69.1469,Authorised Access Point '-' Pedestrian,Gravel Pit Road Bridge 192,430730.0,142984.0,51.18474,-1.56027
BAE1,70.1077,70m 49ch,70.1077,Authorised Access Point '-' Pedestrian,Gollard Lane Bridge 194,429682.0,142301.0,51.17865,-1.57532
BAE1,71.1001,71m 46ch,71.1001,Authorised Access Point '-' Pedestrian,Manor Farm Grately BRIDGE 194,428231.0,141789.0,51.17412,-1.59612
BAE1,71.1507,71m 68ch,71.1507,Authorised Access Point '-' Pedestrian,GRATELEY WALLOPS ROAD <BRIDGE 196>,427789.0,141650.0,51.17289,-1.60246
BAE1,72.0904,72m 41ch,72.0904,Authorised Access Point '-' Road'-'Rail Machines,Grateley Station,426779.0,141332.0,51.17008,-1.61693
BAE1,72.1188,72m 54ch,72.1188,Authorised Access Point '-' Vehicle,Grateley Station Double Gate up side,426627.0,141284.0,51.16966,-1.61911
BAE1,75.0132,75m 06ch,75.0132,Authorised Access Point '-' Vehicle,Former Newton Tony Junction,423210.0,139417.0,51.15302,-1.66811
BAE1,75.0685,75m 31ch,75.0685,Authorised Access Point '-' Vehicle,Former Allington Jc.,422775.0,139099.0,51.15017,-1.67435
BAE1,76.0026,76m 01ch,76.0026,Authorised Access Point '-' Pedestrian,Allington Down <disused> Bridge 204,421961.0,138502.0,51.14484,-1.68602
BAE1,77.0619,77m 28ch,77.0619,Authorised Access Point '-' Pedestrian,Idmiston <No 1> Bridge 208,420225.0,137229.0,51.13345,-1.71091
BAE1,78.0248,78m 11ch,78.0248,Authorised Access Point '-' Vehicle,Former Porton Station,419323.0,136341.0,51.1255,-1.72385
BAE1,78.0455,78m 21ch,78.0455,Authorised Access Point '-' Road'-'Rail Machines,"Targets User Worked Crossing '-' Up Exeter, Upside",419206.0,136190.0,51.12414,-1.72553
BAE1,79.0380,79m 17ch,79.038,Authorised Access Point '-' Pedestrian,Upper Winterbourne <Thorneydown Road> Bridge 213,418224.0,135002.0,51.11349,-1.73963
BAE1,79.1667,79m 76ch,79.1667,Authorised Access Point '-' Pedestrian,Lower Winterbourne Bridge 217,417481.0,134084.0,51.10526,-1.75029
BAE1,80.1254,80m 57ch,80.1254,Authorised Access Point '-' Pedestrian,BROKEN CROSS <BRIDGE 219>,416895.0,132940.0,51.09499,-1.75871
BAE1,81.0361,81m 16ch,81.0361,Authorised Access Point '-' Pedestrian,Ford Road Bridge 220,416413.0,132374.0,51.08991,-1.76562
BAE1,81.0961,81m 44ch,81.0961,Authorised Access Point '-' Pedestrian,Bishop's Down Bridge 226,416040.0,131973.0,51.08632,-1.77096
BAE1,81.1496,81m 68ch,81.1496,Authorised Access Point '-' Pedestrian,Laverstock North Junction SY29,415709.0,131588.0,51.08286,-1.77571
BAE1,82.0179,82m 08ch,82.0179,Authorised Access Point '-' Pedestrian,Mackentosh Bridge 227,415548.0,131233.0,51.07968,-1.77802
BAE1,82.0660,82m 30ch,82.066,Authorised Access Point '-' Pedestrian,London Road <A30> Bridge 228,415212.0,130963.0,51.07726,-1.78283
BAE1,82.1496,82m 68ch,82.1496,Authorised Access Point '-' Pedestrian,Marlborough Road Footbridge 230,414478.0,130799.0,51.0758,-1.79331
BAE1,83.0176,83m 08ch,83.0176,Authorised Access Point '-' Pedestrian,Salisbury near SY212 signal,414166.0,130528.0,51.07337,-1.79778
BAE1,83.0330,83m 15ch,83.033,Authorised Access Point '-' Vehicle,Salisbury near 122 points,414097.0,130409.0,51.0723,-1.79877
BAE1,83.0572,83m 26ch,83.0572,Authorised Access Point '-' Pedestrian,Salisbury Generator Room,414014.0,130233.0,51.07072,-1.79996
BAE1,83.0572,83m 26ch,83.0572,Authorised Access Point '-' Vehicle,SALISBURY NEAR SY223 SIGNAL,413962.0,130247.0,51.07085,-1.8007
BAE1,83.0638,83m 29ch,83.0638,Authorised Access Point '-' Pedestrian,Three Arch Bridge Former East Yard access,413942.0,130213.0,51.07054,-1.80099
BAE1,83.0701,83m 32ch,83.0701,Authorised Access Point '-' Pedestrian,Fisherton Street Bridge 236,413872.0,130180.0,51.07025,-1.80199
BAE1,83.0828,83m 38ch,83.0828,Authorised Access Point '-' Pedestrian,Salisbury Station,413761.0,130154.0,51.07002,-1.80357
BAE1,83.0970,83m 44ch,83.097,Authorised Access Point '-' Pedestrian,Salisbury by Engine Line buffer stop,413630.0,130158.0,51.07006,-1.80544
BAE1,83.1166,83m 53ch,83.1166,Authorised Access Point '-' Pedestrian,Salisbury <PWay Office>,413472.0,130180.0,51.07026,-1.8077
BAE1,83.1215,83m 55ch,83.1215,Authorised Access Point '-' Road'-'Rail Machines,Churchfields,413407.0,130196.0,51.0704,-1.80863
BAE1,83.1430,83m 65ch,83.143,Authorised Access Point '-' Vehicle,Salisbury PWay Car Park,413187.0,130257.0,51.07096,-1.81176
BAE2,84.0924,84m 42ch,84.0924,Authorised Access Point '-' Pedestrian,Skew Bridge near signal SY53,412337.0,130782.0,51.0757,-1.82388
BAE2,84.1408,84m 64ch,84.1408,Authorised Access Point '-' Pedestrian,Pullman Drive Bemerton Heath,411961.0,131003.0,51.07769,-1.82924
BAE2,85.0242,85m 11ch,85.0242,Authorised Access Point '-' Pedestrian,Tucker's Pit Hole Bridge 244,411469.0,131181.0,51.0793,-1.83626
BAE2,85.0931,85m 42ch,85.0931,Authorised Access Point '-' Pedestrian,Wilton Junction,410852.0,131307.0,51.08045,-1.84506
BAE2,86.0198,86m 09ch,86.0198,Authorised Access Point '-' Vehicle,Wilton South station site,410101.0,131763.0,51.08456,-1.85577
BAE2,86.0242,86m 11ch,86.0242,Authorised Access Point '-' Pedestrian,Wilton South <by Station House>,410041.0,131774.0,51.08466,-1.85663
BAE2,86.1061,86m 48ch,86.1061,Authorised Access Point '-' Pedestrian,Ditchampton Road Bridge 252,409303.0,131597.0,51.08308,-1.86717
BAE2,87.0680,87m 31ch,87.068,Authorised Access Point '-' Pedestrian,WILTON WEST <NEAR SIG:SY58R>,408086.0,131246.0,51.07995,-1.88456
BAE2,88.1562,88m 71ch,88.1562,Authorised Access Point '-' Pedestrian,Barford Bridge 259,405722.0,131673.0,51.08381,-1.9183
BAE2,90.1276,90m 58ch,90.1276,Authorised Access Point '-' Vehicle,French Horn <B3089> Bridge 262,402870.0,131347.0,51.0809,-1.95902
BAE2,91.0770,91m 35ch,91.077,Authorised Access Point '-' Pedestrian,Dinton Manor Farm Xing,401679.0,131104.0,51.07872,-1.97603
BAE2,91.1584,91m 72ch,91.1584,Authorised Access Point '-' Pedestrian,Dinton Former Station,400916.0,130965.0,51.07748,-1.98692
BAE2,92.0000,92m 00ch,92.0,Authorised Access Point '-' Road'-'Rail Machines,Dinton Station site,400802.0,130925.0,51.07712,-1.98855
BAE2,92.0858,92m 39ch,92.0858,Authorised Access Point '-' Pedestrian,Teffont Mill Xing CSR Mast,400003.0,130762.0,51.07565,-1.99996
BAE2,93.1056,93m 48ch,93.1056,Authorised Access Point '-' Vehicle,Ham Cross Road Bridge 268,398516.0,129823.0,51.0672,-2.02118
BAE2,94.0616,94m 28ch,94.0616,Authorised Access Point '-' Vehicle,CSR Mast Bridge 272,397379.0,129809.0,51.06707,-2.03741
BAE2,94.1650,94m 75ch,94.165,Authorised Access Point '-' Pedestrian,Tisbury Quarry Crossing Tisbury side,396417.0,129663.0,51.06576,-2.05114
BAE2,94.1650,94m 75ch,94.165,Authorised Access Point '-' Pedestrian,Tisbury Quarry Crossing Tisbury side,396418.0,129653.0,51.06567,-2.05112
BAE2,94.1650,94m 75ch,94.165,Authorised Access Point '-' Pedestrian,Tisbury Quarry Crossing Salisbury side,396430.0,129656.0,51.06569,-2.05095
BAE2,95.1298,95m 59ch,95.1298,Authorised Access Point '-' Pedestrian,Tisbury Row Bridge 277,395172.0,129472.0,51.06403,-2.06891
BAE2,96.0594,96m 27ch,96.0594,Authorised Access Point '-' Pedestrian,Tisbury Station <Goods Yard>,394432.0,128882.0,51.05872,-2.07946
BAE2,97.0273,97m 12ch,97.0273,Authorised Access Point '-' Pedestrian,Tisbury West AHB Xing,393360.0,128130.0,51.05194,-2.09474
BAE2,97.1518,97m 69ch,97.1518,Authorised Access Point '-' Pedestrian,TISBURY WEST <VINEYS BRIDGE>,392326.0,127651.0,51.04762,-2.10949
BAE2,98.0704,98m 32ch,98.0704,Authorised Access Point '-' Pedestrian,TISBURY WEST <PERRETTS BRIDGE>,391450.0,127500.0,51.04625,-2.12198
BAE2,99.1167,99m 53ch,99.1167,Authorised Access Point '-' Vehicle,Pythouse Road Bridge 293,389470.0,127693.0,51.04795,-2.15023
BAE2,100.0704,100m 32ch,100.0704,Authorised Access Point '-' Pedestrian,Semley Road Bridge 295,388512.0,126966.0,51.0414,-2.16388
BAE2,101.0330,101m 15ch,101.033,Authorised Access Point '-' Pedestrian,"Station Road, Semley",387321.0,126756.0,51.03948,-2.18086
BAE2,101.0335,101m 15ch,101.0335,Authorised Access Point '-' Pedestrian,Country end of former station,387319.0,126741.0,51.03935,-2.18089
BAE2,102.1189,102m 54ch,102.1189,Authorised Access Point '-' Pedestrian,Motocombe Road Bridge 301,384941.0,126707.0,51.03899,-2.21481
BAE2,102.1591,102m 72ch,102.1591,Authorised Access Point '-' Vehicle,Humbers Foot Xing,384575.0,126747.0,51.03934,-2.22003
BAE2,103.0172,103m 08ch,103.0172,Authorised Access Point '-' Pedestrian,Mere Road Bridge 302,384263.0,126782.0,51.03964,-2.22448
BAE2,105.0577,105m 26ch,105.0577,Authorised Access Point '-' Vehicle,GILLINGHAM <CSR MAST VEHICLE>,380775.0,126002.0,51.03252,-2.2742
BAE2,105.0594,105m 27ch,105.0594,Authorised Access Point '-' Road'-'Rail Machines,Gillingham,380749.0,125991.0,51.03242,-2.27457
BAE2,105.1342,105m 61ch,105.1342,Authorised Access Point '-' Pedestrian,Common Mead Lane,380256.0,125769.0,51.03041,-2.28159
BAE2,107.0601,107m 27ch,107.0601,Authorised Access Point '-' Pedestrian,Bugley Bridge 311,377911.0,124780.0,51.02143,-2.31497
BAE2,107.1738,107m 79ch,107.1738,Authorised Access Point '-' Pedestrian,Gillingham <Dorset> Tunnel,376876.0,124635.0,51.02008,-2.32972
BAE2,108.0616,108m 28ch,108.0616,Authorised Access Point '-' Pedestrian,Buckhorn Weston Tunnel Radio Mast,376321.0,124555.0,51.01934,-2.33763
BAE2,108.1356,108m 62ch,108.1356,Authorised Access Point '-' Pedestrian,Buckhorn Weston Bridge 314,375645.0,124449.0,51.01836,-2.34726
BAE2,109.0902,109m 41ch,109.0902,Authorised Access Point '-' Vehicle,ASHFORD FOOTPATH CROSSING,374518.0,124026.0,51.01451,-2.3633
BAE2,112.0066,112m 03ch,112.0066,Authorised Access Point '-' Road'-'Rail Machines,Templecombe Station,370800.0,122548.0,51.00104,-2.41618
BAE2,112.1628,112m 74ch,112.1628,Authorised Access Point '-' Pedestrian,Woodbridge No. 329,369382.0,122100.0,50.99694,-2.43636
BAE2,113.0889,113m 40ch,113.0889,Authorised Access Point '-' Pedestrian,Stowell Road Bridge 330,368495.0,121841.0,50.99456,-2.44898
BAE2,114.0635,114m 29ch,114.0635,Authorised Access Point '-' Pedestrian,Milborne Port Station Site,367505.0,120904.0,50.98608,-2.463
BAE2,115.0211,115m 10ch,115.0211,Authorised Access Point '-' Pedestrian,Three Arch Bridge 336,366713.0,119978.0,50.97771,-2.4742
BAE2,115.1166,115m 53ch,115.1166,Authorised Access Point '-' Pedestrian,Hut <Bridge 337>,366121.0,119304.0,50.97161,-2.48257
BAE2,116.0792,116m 36ch,116.0792,Authorised Access Point '-' Pedestrian,Oborne Road <A30> Bridge 339,365743.0,118106.0,50.96081,-2.48784
BAE2,117.1756,117m 80ch,117.1756,Authorised Access Point '-' Vehicle,Sherborne level'-'Crossing MCB,364106.0,116230.0,50.94384,-2.51097
BAE2,118.0088,118m 04ch,118.0088,Authorised Access Point '-' Pedestrian,Sherborne Station,364044.0,116171.0,50.94331,-2.51184
BAE2,119.0330,119m 15ch,119.033,Authorised Access Point '-' Vehicle,Lenthay Farm Crossing & Footpath,362424.0,115279.0,50.93518,-2.53481
BAE2,121.1086,121m 49ch,121.1086,Authorised Access Point '-' Pedestrian,Bradford Abbas Bishops Lane,358629.0,114414.0,50.92714,-2.58872
BAE2,122.1100,122m 50ch,122.11,Authorised Access Point '-' Pedestrian,YEOVIL STEAM GROUP,357006.0,114040.0,50.92366,-2.61177
BAE2,122.1122,122m 51ch,122.1122,Authorised Access Point '-' Vehicle,YEOVIL JN STATION CAR PARK,357017.0,114097.0,50.92418,-2.61162
BAE2,122.1166,122m 53ch,122.1166,Authorised Access Point '-' Pedestrian,YEOVIL JUNCTION BARROW CROSSING,356981.0,114049.0,50.92374,-2.61213
BAE2,123.0244,123m 11ch,123.0244,Authorised Access Point '-' Vehicle,Stoford Field,356506.0,113489.0,50.91867,-2.61882
BAE2,124.0710,124m 32ch,124.071,Authorised Access Point '-' Pedestrian,Sutton Bingham < Abbots Mill Bridge>,355475.0,111768.0,50.90311,-2.63328
BAE2,124.1496,124m 68ch,124.1496,Authorised Access Point '-' Road'-'Rail Machines,Sutton Bingham Station site,354835.0,111468.0,50.90037,-2.64234
BAE2,126.0284,126m 13ch,126.0284,Authorised Access Point '-' Pedestrian,Kit Hill,353125.0,110494.0,50.89147,-2.66654
BAE2,126.0284,126m 13ch,126.0284,Authorised Access Point '-' Pedestrian,Kit Hill,353125.0,110494.0,50.89147,-2.66654
BAE2,126.0291,126m 13ch,126.0291,Authorised Access Point '-' Pedestrian,Kit Hill,353110.0,110499.0,50.89152,-2.66675
BAE2,126.1537,126m 70ch,126.1537,Authorised Access Point '-' Pedestrian,Pendomer <Bridge 378>,352197.0,109867.0,50.88576,-2.67965
BAE2,127.1496,127m 68ch,127.1496,Authorised Access Point '-' Vehicle,Hardington Sidings,350722.0,109414.0,50.88156,-2.70056
BAE2,129.0373,129m 17ch,129.0373,Authorised Access Point '-' Pedestrian,Haselbury Bridge 384,348811.0,108377.0,50.87207,-2.72758
BAE2,129.0748,129m 34ch,129.0748,Authorised Access Point '-' Pedestrian,Wood Lane <Bridge 385>,348478.0,108336.0,50.87167,-2.73231
BAE2,130.0396,130m 18ch,130.0396,Authorised Access Point '-' Pedestrian,Pipplepen Bridge 387,347154.0,108246.0,50.87074,-2.75111
BAE2,131.0633,131m 29ch,131.0633,Authorised Access Point '-' Vehicle,Crewkerne,345385.0,108510.0,50.87295,-2.77629
BAE2,132.0078,132m 04ch,132.0078,Authorised Access Point '-' Vehicle,Crewkerne AHB,344310.0,108369.0,50.87158,-2.79155
BAE2,132.1078,132m 49ch,132.1078,Authorised Access Point '-' Pedestrian,CREWKERNE TNL EXETER END,343453.0,108577.0,50.87337,-2.80376
BAE2,132.1188,132m 54ch,132.1188,Authorised Access Point '-' Pedestrian,Crewkerne Tunnel <Exeter End>,343354.0,108644.0,50.87396,-2.80518
BAE2,133.1144,133m 52ch,133.1144,Authorised Access Point '-' Pedestrian,Hewish Rd,342052.0,108319.0,50.87091,-2.82363
BAE2,134.0083,134m 04ch,134.0083,Authorised Access Point '-' Vehicle,Hewish AHB,341785.0,107732.0,50.8656,-2.82733
BAE2,134.1540,134m 70ch,134.154,Authorised Access Point '-' Vehicle,Wayford Bridge 399,341116.0,106594.0,50.8553,-2.83665
BAE2,137.0000,137m 00ch,137.0,Authorised Access Point '-' Pedestrian,Winsham Rd Bridge 408,337826.0,105856.0,50.84832,-2.88327
BAE2,138.0039,138m 02ch,138.0039,Authorised Access Point '-' Pedestrian,Ford Abbey Knapp Bridge 417,336215.0,105571.0,50.84558,-2.9061
BAE2,139.0718,139m 33ch,139.0718,Authorised Access Point '-' Pedestrian,Chard Junction,334120.0,104838.0,50.83876,-2.93573
BAE2,139.0880,139m 40ch,139.088,Authorised Access Point '-' Pedestrian,Chard Junction Station,333987.0,104733.0,50.8378,-2.9376
BAE2,141.0298,141m 14ch,141.0298,Authorised Access Point '-' Vehicle,Broom,332639.0,102439.0,50.81701,-2.95632
BAE2,141.1237,141m 56ch,141.1237,Authorised Access Point '-' Vehicle,Axe Farm,332144.0,101736.0,50.81063,-2.96321
BAE2,142.1356,142m 62ch,142.1356,Authorised Access Point '-' Pedestrian,Coaxdon Rd Bridge 433,331006.0,100449.0,50.79893,-2.97912
BAE2,143.0088,143m 04ch,143.0088,Authorised Access Point '-' Pedestrian,WEYCROFT,330665.0,100129.0,50.79601,-2.9839
BAE2,151.0632,151m 29ch,151.0632,Authorised Access Point '-' Vehicle,Honiton <Incline>,321363.0,100732.0,50.80024,-3.11601
BAE2,152.0253,152m 12ch,152.0253,Authorised Access Point '-' Pedestrian,Coombe Water,320135.0,100988.0,50.80238,-3.13349
BAE2,153.0814,153m 37ch,153.0814,Authorised Access Point '-' Pedestrian,Northcote Hill,317992.0,101385.0,50.80565,-3.16398
BAE2,154.1342,154m 61ch,154.1342,Authorised Access Point '-' Road'-'Rail Machines,HONITON,316357.0,100311.0,50.79576,-3.18694
BAE2,154.1474,154m 67ch,154.1474,Authorised Access Point '-' Vehicle,Honiton station,316253.0,100230.0,50.79501,-3.1884
BAG1,43.0078,43m 04ch,43.0078,Authorised Access Point '-' Pedestrian,Fiveways RRAP pedestrian access,405792.4,285512.6,52.46715,-1.91473
BAG1,43.0768,43m 35ch,43.0768,Authorised Access Point '-' Road'-'Rail Machines,Holiday Street/Fiveways <RRAP>,405797.2,285523.2,52.46725,-1.91466
BAG1,43.0780,43m 35ch,43.078,Authorised Access Point '-' Pedestrian,Fiveways RRAP pedestrian access,405792.4,285512.6,52.46715,-1.91473
BAG1,44.0666,44m 30ch,44.0666,Authorised Access Point '-' Pedestrian,Somerset Road <Br.13>,404976.0,284416.0,52.4573,-1.92676
BAG1,44.1484,44m 67ch,44.1484,Authorised Access Point '-' Vehicle,Vincent Drive,404525.0,283825.0,52.45199,-1.93341
BAG1,45.1237,45m 56ch,45.1237,Authorised Access Point '-' Vehicle,Selly Oak Station Car Park,404526.0,282556.0,52.44058,-1.93341
BAG1,46.1249,46m 57ch,46.1249,Authorised Access Point '-' Pedestrian,Bournville Stn,405082.0,281050.8,52.42704,-1.92525
BAG1,47.0015,47m 01ch,47.0015,Authorised Access Point '-' Road'-'Rail Machines,"York Close, Bournville, B30 2HN",405135.0,280575.0,52.42276,-1.92448
BAG1,47.0015,47m 01ch,47.0015,Authorised Access Point '-' Vehicle,YORK CLOSE,405130.9,280574.5,52.42276,-1.92454
BAG1,47.0358,47m 16ch,47.0358,Authorised Access Point '-' Pedestrian,Breedon Road <Br.34>,405107.0,280267.0,52.41999,-1.9249
BAG2,46.1313,46m 60ch,46.1313,Authorised Access Point '-' Pedestrian,Kings Norton Stn Platform 1,404589.7,404589.7,53.53769,-1.93074
BAG2,46.1496,46m 68ch,46.1496,Authorised Access Point '-' Vehicle,Kings Norton,404417.0,279519.0,52.41328,-1.93505
BAG2,46.1522,46m 69ch,46.1522,Authorised Access Point '-' Pedestrian,Kings Norton,404445.0,279524.0,52.41332,-1.93464
BAG2,47.0440,47m 20ch,47.044,Authorised Access Point '-' Vehicle,Former Goods Yard,403799.0,279468.0,52.41282,-1.94414
BAG2,47.1576,47m 72ch,47.1576,Authorised Access Point '-' Pedestrian,Wychall Lane <Overbridge No. 128>,402820.0,279145.0,52.40992,-1.95854
BAG2,48.0150,48m 07ch,48.015,Authorised Access Point '-' Road'-'Rail Machines,NORTHFIELD STATION CAR PARK,402558.5,278994.6,52.40857,-1.96238
BAG2,49.0176,49m 08ch,49.0176,Authorised Access Point '-' Vehicle,Tessal Lane,401474.0,277782.0,52.39767,-1.97833
BAG2,49.0330,49m 15ch,49.033,Authorised Access Point '-' Pedestrian,Old Longbridge Lane <Br.121>,401405.0,277660.0,52.39658,-1.97935
BAG2,49.0343,49m 16ch,49.0343,Authorised Access Point '-' Pedestrian,Longbridge Stn,401399.8,277649.9,52.39649,-1.97943
BAG2,51.1320,51m 60ch,51.132,Authorised Access Point '-' Road'-'Rail Machines,Barnt Green Station Approach,400596.0,273653.0,52.36055,-1.99125
BAG2,52.0704,52m 32ch,52.0704,Authorised Access Point '-' Pedestrian,<Overbridge No. 110>,400142.0,272826.0,52.35312,-1.99791
BAG2,53.0308,53m 14ch,53.0308,Authorised Access Point '-' Road'-'Rail Machines,Barnt Green to Westerleigh Jn excl <to 109m 40ch>,399260.0,271972.0,52.34544,-2.01086
BAG2,53.1160,53m 53ch,53.116,Authorised Access Point '-' Road'-'Rail Machines,Hewell Lane,398721.0,271360.0,52.33993,-2.01877
BAG2,55.0702,55m 32ch,55.0702,Authorised Access Point '-' Pedestrian,Old Bromsgrove Station <new road>,396848.0,269329.0,52.32166,-2.04625
BAG2,55.1052,55m 48ch,55.1052,Authorised Access Point '-' Pedestrian,Bromsgrove Stn,396656.3,269074.1,52.31937,-2.04906
BAG2,56.0616,56m 28ch,56.0616,Authorised Access Point '-' Pedestrian,Sugar Brook Bridge,395951.0,268092.0,52.31054,-2.0594
BAG2,56.1540,56m 70ch,56.154,Authorised Access Point '-' Pedestrian,Stoke Pound Bridge,395396.0,267456.0,52.30481,-2.06753
BAG2,57.0220,57m 10ch,57.022,Authorised Access Point '-' Pedestrian,Navigation Underbridge,395080.0,267209.0,52.30259,-2.07216
BAG2,57.0946,57m 43ch,57.0946,Authorised Access Point '-' Vehicle,Handcrank Release,394555.0,266804.0,52.29894,-2.07986
BAG2,58.1386,58m 63ch,58.1386,Authorised Access Point '-' Pedestrian,Astwood Bridge,393571.0,265070.0,52.28334,-2.09425
BAG2,60.0462,60m 21ch,60.0462,Authorised Access Point '-' Road'-'Rail Machines,Droitwich Road RRAP,392758.0,262847.0,52.26334,-2.10612
BAG2,60.0704,60m 32ch,60.0704,Authorised Access Point '-' Vehicle,Huntingdon Overbridge,392698.0,262635.0,52.26144,-2.107
BAG2,61.0308,61m 14ch,61.0308,Authorised Access Point '-' Pedestrian,Hay Lane Underbridge,392359.0,261436.0,52.25065,-2.11194
BAG2,61.1606,61m 73ch,61.1606,Authorised Access Point '-' Pedestrian,Dunhampstead Road Bridge,392037.0,260293.0,52.24037,-2.11663
BAG2,62.0264,62m 12ch,62.0264,Authorised Access Point '-' Vehicle,Barnt Green '-' Westerleigh Jn excl <to 109m 40c>,391888.0,259943.0,52.23722,-2.1188
BAG2,62.0264,62m 12ch,62.0264,Authorised Access Point '-' Vehicle,Dunhampstead Relay Room RRAP,391888.0,259943.0,52.23722,-2.1188
BAG2,65.1738,65m 79ch,65.1738,Authorised Access Point '-' Pedestrian,Bredicot School Bridge,390433.0,254081.0,52.18449,-2.13995
BAG2,66.0264,66m 12ch,66.0264,Authorised Access Point '-' Road'-'Rail Machines,Spetchley Yard RRAP,390358.0,253831.0,52.18224,-2.14104
BAG2,67.1144,67m 52ch,67.1144,Authorised Access Point '-' Vehicle,Pitchmoor Underbridge,389534.0,251582.0,52.162,-2.15302
BAG2,67.1628,67m 74ch,67.1628,Authorised Access Point '-' Pedestrian,Norton Hill Retaining Wall,389291.0,251212.0,52.15867,-2.15656
BAG2,68.1320,68m 60ch,68.132,Authorised Access Point '-' Vehicle,Abbotswood Junction,388938.0,249949.0,52.14731,-2.16168
BAG2,68.1596,68m 73ch,68.1596,Authorised Access Point '-' Vehicle,G128 Signal,388942.0,249694.0,52.14502,-2.16161
BAG2,69.0308,69m 14ch,69.0308,Authorised Access Point '-' Pedestrian,Abbotswood Road,389038.0,249273.0,52.14123,-2.1602
BAG2,70.0039,70m 02ch,70.0039,Authorised Access Point '-' Vehicle,"Wadborough level crossing , station road",389430.0,247967.9,52.12951,-2.15443
BAG2,71.0638,71m 29ch,71.0638,Authorised Access Point '-' Pedestrian,Perrywood Bridge,390055.0,245907.0,52.11099,-2.14524
BAG2,73.0902,73m 41ch,73.0902,Authorised Access Point '-' Road'-'Rail Machines,Barnt Green '-' Westerleigh Jn excl <to 109m 41c>,392167.0,241228.0,52.06895,-2.11429
BAG2,73.0946,73m 43ch,73.0946,Authorised Access Point '-' Vehicle,Defford Station Old Yard,391626.0,242786.0,52.08295,-2.12222
BAG2,74.1056,74m 48ch,74.1056,Authorised Access Point '-' Pedestrian,Avon Drive,392194.0,241138.0,52.06814,-2.11389
BAG2,75.1562,75m 71ch,75.1562,Authorised Access Point '-' Pedestrian,The Cottage Underbridge,392544.0,239147.0,52.05024,-2.10874
BAG2,76.1276,76m 58ch,76.1276,Authorised Access Point '-' Pedestrian,Meadow Lane Bridge,392612.0,237802.0,52.03815,-2.10772
BAG2,77.0088,77m 04ch,77.0088,Authorised Access Point '-' Pedestrian,The New Grounds Overbridge,392637.0,237280.0,52.03346,-2.10734
BAG2,77.0748,77m 34ch,77.0748,Authorised Access Point '-' Pedestrian,Bredon Old Station,392637.0,236675.0,52.02802,-2.10733
BAG2,78.1672,78m 76ch,78.1672,Authorised Access Point '-' Vehicle,Barnt Green to Westerleigh Jn excl <to 109m 40ch>,392632.0,234222.0,52.00596,-2.10735
BAG2,79.0880,79m 40ch,79.088,Authorised Access Point '-' Vehicle,Ashchurch Station,392629.0,233342.0,51.99805,-2.10738
BAG2,79.0990,79m 45ch,79.099,Authorised Access Point '-' Road'-'Rail Machines,Barnt Green to Westerleigh Jn excl <to 109m 40ch>,392629.0,233241.0,51.99714,-2.10737
BAG2,80.0176,80m 08ch,80.0176,Authorised Access Point '-' Vehicle,Barnt Green to Westerleigh Jn excl <to 109m 40ch>,392627.0,232372.0,51.98933,-2.10738
BAG2,80.0858,80m 39ch,80.0858,Authorised Access Point '-' Vehicle,Fiddington Bridge,392627.0,231749.0,51.98372,-2.10737
BAG2,81.0946,81m 43ch,81.0946,Authorised Access Point '-' Vehicle,Tredington Relay Room,392626.0,230058.0,51.96852,-2.10735
BAG2,81.0968,81m 44ch,81.0968,Authorised Access Point '-' Vehicle,Barnt Green to Westerleigh Jn excl <to 109m 40ch>,392627.0,230038.0,51.96834,-2.10733
BAG2,82.1562,82m 71ch,82.1562,Authorised Access Point '-' Vehicle,Cleeve Road Bridge,393282.0,227999.0,51.95001,-2.09776
BAG2,84.0066,84m 03ch,84.0066,Authorised Access Point '-' Vehicle,Barnt Green to Westerleigh Jn excl <to 109m 40ch>,393843.0,226233.0,51.93414,-2.08956
BAG2,84.0506,84m 23ch,84.0506,Authorised Access Point '-' Vehicle,Barnt Green to Westerleigh Jn excl <to 109m 40ch>,393919.0,225839.0,51.9306,-2.08845
BAG2,85.0066,85m 03ch,85.0066,Authorised Access Point '-' Vehicle,Morris Hill Relay Room,393884.0,224649.0,51.9199,-2.08894
BAG2,85.0066,85m 03ch,85.0066,Authorised Access Point '-' Pedestrian,Morris Hill Retaining Wall,393884.0,224649.0,51.9199,-2.08894
BAG2,85.0704,85m 32ch,85.0704,Authorised Access Point '-' Pedestrian,Swindon Road Bridge,393742.0,224979.0,51.92286,-2.09101
